pic_id,Views,Camera_Make,Camera_Model,Exposure,Aperture,Exposure_Program,ISO,Flash,Focal_length,Color_Space,Lens_Model,latitude,longitude,county,region,country,Metering_Mode,tags
52889292828,5667.0,Canon,Canon EOS R7,0.0003125,7.1,Manual,12800.0,No Flash,100.0,sRGB,RF100-500mm F4.5-7.1 L IS USM,53.009817,6.668162,Gemeente Aa en Hunze,Provincie Drenthe,Holland,Multi-segment,
52898969733,5616.0,Canon,Canon EOS 7D Mark II,0.004,7.1,Manual,160.0,"Off, Did not fire",24.0,Adobe RGB,24-105mm F4 DG OS HSM | Art 013,42.951773,-85.873517,Ottawa,Michigan,United States,Multi-segment,
52868541017,5588.0,Canon,Canon EOS 100D,0.008,4.5,Shutter speed priority AE,100.0,"Off, Did not fire",70.0,sRGB,EF70-300mm f/4-5.6L IS USM,-34.463842,150.897474,Wollongong,New South Wales,Australia,Multi-segment,
52888717351,5553.0,Canon,Canon EOS 800D,0.00625,8.0,Manual,100.0,"Off, Did not fire",70.0,sRGB,EF70-300mm f/4-5.6 IS II USM,53.359666,-6.179714,Dublin City,Leinster,Ireland,Multi-segment,
52750553710,5534.0,Canon,Canon EOS-1D X,15.0,9.0,Manual,50.0,"Off, Did not fire",40.0,sRGB,EF24-105mm f/4L IS USM,59.872091,30.430841,Dublin City,Leningrad Oblast,Russia,Spot,
52750379543,5479.0,samsung,SM-G935U,0.016666666666666666,1.7,Program AE,100.0,No Flash,4.2,sRGB,EF24-105mm f/4L IS USM,44.979222,-93.255934,Hennepin,Minnesota,United States,Center-weighted average,
52829250381,5368.0,SONY,DSC-RX10M4,0.002,4.5,Manual,200.0,"Off, Did not fire",8.8,sRGB,iPhone 12 Pro back triple camera 1.54mm f/2.4,42.696390,10.993769,Provincia di Grosseto,Tuscany,Italy,Multi-segment,
52715792629,5367.0,NIKON,COOLPIX P500,0.001,5.0,Program AE,160.0,"Off, Did not fire",4.5,sRGB,iPhone 12 Pro back triple camera 1.54mm f/2.4,57.580175,-4.386377,Highland,Scotland,UK,Multi-segment,
52883078511,5345.0,Canon,Canon EOS 550D,0.0025,5.6,Manual,3200.0,"Off, Did not fire",53.0,sRGB,EF-S18-55mm f/3.5-5.6 IS,43.380052,-8.409261,A Coruña,Galicia,Spain,Multi-segment,
52818413403,5342.0,Canon,Canon EOS 5D Mark IV,0.0015625,6.3,Manual,400.0,"Off, Did not fire",176.0,Uncalibrated,EF100-400mm f/4.5-5.6L IS II USM,-65.766726,-65.137939,A Coruña,Galicia,Spain,Multi-segment,
52722628257,5314.0,FUJIFILM,X-H1,27.0,8.0,Aperture-priority AE,100.0,No Flash,10.0,Uncalibrated,XF10-24mmF4 R OIS,43.553897,7.121919,Alpes-Maritimes,Provence-Alpes-Côte d&#039;Azur,France,Multi-segment,
52869827540,5264.0,SONY,ILCE-5000,0.008,14.0,Program AE,100.0,"Auto, Did not fire",31.0,sRGB,E PZ 16-50mm F3.5-5.6 OSS,50.756563,7.114205,Cologne District,Northrhine-Westphalia,Germany,Multi-segment,
52895522675,5154.0,SONY,ILCE-5000,0.001,8.0,Program AE,100.0,"Auto, Did not fire",24.0,Uncalibrated,E PZ 16-50mm F3.5-5.6 OSS,41.034774,14.870327,Provincia di Avellino,Campania,Italy,Multi-segment,
52795050411,5129.0,Canon,Canon EOS REBEL T1i,0.00625,7.1,Program AE,400.0,"Off, Did not fire",100.0,Uncalibrated,E PZ 16-50mm F3.5-5.6 OSS,41.818420,-86.343526,Berrien,Michigan,United States,Multi-segment,
52761235543,5026.0,samsung,SM-G930V,0.0006329113924050633,1.7,Program AE,50.0,No Flash,4.2,sRGB,Samsung Galaxy S7 Rear Camera,33.467391,-116.693916,Riverside,California,United States,Multi-segment,
52701779041,4902.0,OLYMPUS IMAGING CORP.,E-M5,0.002,10.0,Program AE,200.0,"Auto, Did not fire",40.0,sRGB,OLYMPUS M.40-150mm F4.0-5.6 R,46.550425,11.665305,South Tyrol,Trentino-Alto Adige,Italy,Multi-segment,
52738397097,4901.0,Apple,iPhone 11 Pro Max,0.0003549875754348598,1.8,Program AE,32.0,"Off, Did not fire",4.2,sRGB,iPhone 11 Pro Max back triple camera 4.25mm f/1.8,-20.453325,-41.801298,Alto Caparaó,Minas Gerais,Brazil,Spot,
52806897650,4887.0,NIKON CORPORATION,NIKON D850,0.01,5.6,Manual,160.0,No Flash,20.0,Uncalibrated,17.0-35.0 mm f/2.8,35.491577,138.605041,Minamitsuru-gun,Yamanashi,Japan,Multi-segment,
52740251179,4859.0,Apple,iPhone 11 Pro Max,0.25,1.8,Program AE,2500.0,"On, Fired",4.2,sRGB,iPhone 11 Pro Max back triple camera 4.25mm f/1.8,-20.434445,-41.796317,Alto Caparaó,Minas Gerais,Brazil,Spot,
52740218908,4857.0,Apple,iPhone 11 Pro Max,0.25,1.8,Program AE,2500.0,"On, Fired",4.2,Uncalibrated,iPhone 11 Pro Max back triple camera 4.25mm f/1.8,57.425355,-6.783256,Highland,Scotland,UK,Spot,
52759042312,4832.0,NIKON CORPORATION,NIKON D850,0.00625,16.0,Aperture-priority AE,100.0,No Flash,95.0,Uncalibrated,70.0-200.0 mm f/2.8,46.865932,7.470057,Bern-Mittelland District,Bern,Switzerland,Multi-segment,
52793639714,4772.0,FUJIFILM,X-H1,0.017241379310344827,8.0,Aperture-priority AE,100.0,No Flash,10.0,Uncalibrated,XF10-24mmF4 R OIS,43.666774,7.214537,Alpes-Maritimes,Provence-Alpes-Côte d&#039;Azur,France,Multi-segment,
52787568854,4733.0,Canon,Canon EOS R,6.0,14.0,Manual,100.0,No Flash,33.0,Uncalibrated,24-70mm F2.8 DG OS HSM | Art 017,37.803367,-0.800478,Murcia,Murcia,Spain,Multi-segment,
52829603768,4649.0,NIKON CORPORATION,NIKON D850,0.002,5.6,Aperture-priority AE,100.0,No Flash,35.0,Uncalibrated,24.0-70.0 mm f/2.8,34.297338,132.318802,Hatsukaichi-shi,Hiroshima,Japan,Multi-segment,
52797502240,4594.0,SONY,ILCE-6600,0.01,5.6,Manual,200.0,No Flash,25.0,sRGB,E 18-135mm F3.5-5.6 OSS,6.000475,80.752315,Hambantota District,Southern Province,Sri Lanka,Multi-segment,
52703569193,4473.0,SONY,MS Scanner,0.01,5.6,Manual,200.0,No Flash,25.0,Uncalibrated,E 18-135mm F3.5-5.6 OSS,47.281354,12.573101,Politischer Bezirk Zell am See,Salzburg,Austria,Multi-segment,
52796957289,4443.0,Apple,iPhone SE (2nd generation),0.00273224043715847,1.8,Program AE,20.0,"Off, Did not fire",4.0,sRGB,iPhone SE (2nd generation) back camera 3.99mm f/1.8,33.322623,-99.052283,Throckmorton,Texas,United States,Multi-segment,
52715439140,4384.0,SONY,ILCE-7RM2,30.0,8.0,Manual,100.0,"Off, Did not fire",27.0,sRGB,FE 16-35mm F4 ZA OSS,47.429933,9.103336,Wahlkreis Wil,Saint Gall,Switzerland,Spot,
52795314833,4359.0,NIKON CORPORATION,NIKON D850,0.01,13.0,Aperture-priority AE,100.0,No Flash,22.0,Uncalibrated,17.0-35.0 mm f/2.8,47.087005,7.134538,Biel/Bienne District,Bern,Switzerland,Multi-segment,
52807164450,4338.0,Canon,Canon EOS 6D,2.0,22.0,Manual,100.0,"Off, Did not fire",24.0,sRGB,EF24-105mm f/4L IS USM,65.683079,-17.548384,Þingeyjarsveit,Northeast,Iceland,Center-weighted average,
52750874941,4281.0,samsung,SM-A526B,0.0009090909090909091,1.8,Program AE,50.0,No Flash,5.2,sRGB,EF24-105mm f/4L IS USM,47.133136,12.808490,Politischer Bezirk Zell am See,Salzburg,Austria,Center-weighted average,
52747470893,4243.0,NIKON CORPORATION,NIKON D700,0.001,8.0,Aperture-priority AE,200.0,No Flash,20.0,Uncalibrated,20.0 mm f/2.8,40.633911,14.603019,Provincia di Salerno,Campania,Italy,Multi-segment,
52714641288,4225.0,Canon,Canon PowerShot SX10 IS,0.002,4.5,Aperture-priority AE,80.0,No Flash,24.5,sRGB,20.0 mm f/2.8,37.213617,-112.940676,Washington,Utah,United States,Multi-segment,
52699452164,4223.0,NIKON CORPORATION,NIKON D5300,0.02,9.0,Aperture-priority AE,100.0,No Flash,20.0,sRGB,10.0-20.0 mm f/4.5-5.6,40.336407,-75.905465,Berks,Pennsylvania,United States,Spot,
52819604807,4171.0,NIKON CORPORATION,NIKON Z 6_2,0.0005,5.6,Aperture-priority AE,100.0,No Flash,85.0,sRGB,NIKKOR Z 85mm f/1.8 S,48.210252,16.245925,Vienna,Vienna,Austria,Multi-segment,
52705295449,4162.0,SONY,ILCE-6300,0.008,9.0,Landscape,100.0,"Off, Did not fire",16.0,sRGB,E PZ 16-50mm F3.5-5.6 OSS,-41.089928,-71.547356,Departamento de Bariloche,Rio Negro,Argentina,Multi-segment,
52709119677,4086.0,Canon,Canon EOS 6D,0.003125,14.0,Aperture-priority AE,640.0,"Off, Did not fire",200.0,sRGB,EF70-200mm f/4L IS USM,48.619633,-1.511478,Manche,Normandy,France,Center-weighted average,
52751636521,4039.0,Canon,Canon EOS 80D,0.00625,8.0,Program AE,100.0,"Off, Did not fire",35.0,Uncalibrated,EF-S18-135mm f/3.5-5.6 IS USM,46.987381,12.664210,West Flanders,Tyrol,Austria,Multi-segment,
52708523924,4005.0,SONY,ILCE-7RM3,60.0,11.0,Manual,100.0,"Off, Did not fire",25.0,Uncalibrated,ZEISS Loxia 2.4/25,38.691606,-9.421198,Cascais Municipality,Lisbon,Portugal,Multi-segment,
52885550541,3963.0,NIKON CORPORATION,NIKON Z 6,0.005,14.0,Aperture-priority AE,100.0,No Flash,14.0,sRGB,NIKKOR Z 14-30mm f/4 S,47.729161,13.478361,Politischer Bezirk Salzburg-Umgebung,Salzburg,Austria,Multi-segment,
52716982659,3947.0,FUJIFILM,X-E3,0.017857142857142856,11.0,Aperture-priority AE,200.0,No Flash,55.0,Uncalibrated,Fujifilm Fujinon XF18-55mmF2.8-4 R LM OIS,57.425797,-6.781989,Highland,Scotland,UK,Multi-segment,
52734765754,3879.0,NIKON CORPORATION,NIKON D7000,0.008,10.0,Aperture-priority AE,1000.0,No Flash,170.0,Uncalibrated,TAMRON SP 70-300mm F4-5.6 Di VC USD A005N,59.821413,17.650027,Uppsala Municipality,Uppsala,Sweden,Multi-segment,
52737750217,3877.0,Canon,Canon EOS 80D,0.005,8.0,Program AE,100.0,"Off, Did not fire",62.0,Uncalibrated,EF-S18-135mm f/3.5-5.6 IS USM,46.627712,12.040243,South Tyrol,Trentino-Alto Adige,Italy,Multi-segment,
52754791845,3812.0,Canon,Canon EOS-1Ds Mark III,0.005,14.0,Manual,200.0,No Flash,35.0,sRGB,XF18-135mmF3.5-5.6R LM OIS WR,22.360157,103.763680,South Tyrol,T?nh Lai Châu,Vietnam,Multi-segment,
52692991180,3766.0,SONY,ILCE-7RM2,0.0125,4.5,Manual,100.0,"Off, Did not fire",16.0,sRGB,FE 16-35mm F4 ZA OSS,47.429730,9.103063,Wahlkreis Wil,Saint Gall,Switzerland,Spot,
52900286560,3710.0,SONY,ILCE-7RM2,0.003125,7.1,Manual,100.0,"Off, Did not fire",22.0,sRGB,FE 16-35mm F4 ZA OSS,45.353683,10.723983,Provincia di Verona,Veneto,Italy,Spot,
52806674387,3688.0,Canon,Canon EOS 5D Mark III,15.0,13.0,Manual,100.0,"Off, Did not fire",16.0,Uncalibrated,EF16-35mm f/2.8L II USM,38.496047,-0.259101,Alicante,Valencia,Spain,Spot,
52765979884,3674.0,NIKON CORPORATION,NIKON Z 6_2,0.125,13.0,Aperture-priority AE,200.0,"Off, Did not fire",38.0,sRGB,VR 24-120mm f/4G,37.640147,15.183320,Catania,Sicily,Italy,Multi-segment,
52809854581,3626.0,Apple,iPhone 12 Pro,0.005,2.4,Program AE,25.0,"Off, Did not fire",1.5,sRGB,iPhone 12 Pro back triple camera 1.54mm f/2.4,-39.305734,-72.055542,San Diego,Región de la Araucanía,Chile,Multi-segment,
52826946975,3625.0,Canon,Canon EOS 6D,0.0015625,5.0,Aperture-priority AE,100.0,"Off, Did not fire",50.0,sRGB,EF50mm f/1.4 USM,27.743043,-15.580630,Las Palmas,Canary Islands,Spain,Multi-segment,
52721166806,3573.0,Apple,iPhone 12 Pro,0.0005555555555555556,2.0,Aperture-priority AE,25.0,No Flash,6.0,sRGB,iPhone 12 Pro back camera 6mm f/2,-39.284087,-72.221620,Provincia de Cautín,Región de la Araucanía,Chile,Multi-segment,
52899807327,3509.0,SONY,ILCE-7M4,20.0,11.0,Aperture-priority AE,250.0,"Off, Did not fire",14.0,sRGB,14-24mm F2.8 DG DN | Art 019,40.715224,-74.016770,New York,New York,United States,Center-weighted average,
52874433833,3483.0,Canon,Canon EOS 6D,0.016666666666666666,11.0,Aperture-priority AE,320.0,"Off, Did not fire",24.0,sRGB,EF24-105mm f/4L IS USM,64.244296,-14.971532,Sveitarfélagið Hornafjörður,East,Iceland,Center-weighted average,
52820867699,3481.0,samsung,SM-G975F,0.0003094059405940594,2.4,Program AE,50.0,No Flash,4.3,sRGB,EF24-105mm f/4L IS USM,35.334948,25.274902,Nomós Irakleíou,Crete,Greece,Center-weighted average,
52693007006,3330.0,NIKON CORPORATION,NIKON D850,0.008,5.0,Manual,1000.0,No Flash,70.0,sRGB,70.0-200.0 mm f/2.8,41.996370,-82.835848,Nomós Irakleíou,Ontario,Canada,Center-weighted average,
52753038058,3300.0,samsung,SM-A525F,0.005952380952380952,1.8,Program AE,40.0,No Flash,5.2,sRGB,70.0-200.0 mm f/2.8,42.137802,19.051417,Nomós Irakleíou,Bar,Montenegro,Center-weighted average,
52786671889,3300.0,Apple,iPhone 12 Pro,0.0017094017094017094,2.4,Program AE,25.0,"Off, Did not fire",1.5,Uncalibrated,iPhone 12 Pro back triple camera 1.54mm f/2.4,51.506013,-0.173498,Greater London,England,UK,Multi-segment,
52789638047,3276.0,SONY,ILCE-7RM2,0.002,8.0,Manual,100.0,"Off, Did not fire",31.0,sRGB,FE 16-35mm F4 ZA OSS,47.155027,9.313316,Wahlkreis Werdenberg,Saint Gall,Switzerland,Spot,
52748747721,3273.0,Canon,Canon EOS 5D Mark IV,0.02,8.0,Aperture-priority AE,200.0,"Off, Did not fire",24.0,sRGB,EF24-105mm f/4L IS USM,51.676005,4.106194,Schouwen-Duiveland,Provincie Zeeland,Holland,Multi-segment,
52832676156,3201.0,HUAWEI,JNY-LX1,8.695652173913044e-05,1.8,Program AE,50.0,No Flash,4.8,sRGB,Fujifilm Fujinon XF23mmF2 R WR,51.454605,20.457619,Powiat opoczynski,Lódz Voivodeship,Poland,Multi-segment,
52785095839,3145.0,samsung,SM-G991B,0.0018726591760299626,1.8,Program AE,50.0,No Flash,5.4,sRGB,EF24-105mm f/4L IS USM,52.371927,4.895805,Gemeente Amsterdam,North Holland,Holland,Center-weighted average,
52753355021,3119.0,SONY,ILCE-7RM2,0.005,8.0,Manual,100.0,"Off, Did not fire",35.0,sRGB,FE 16-35mm F4 ZA OSS,47.429433,9.102797,Wahlkreis Wil,Saint Gall,Switzerland,Spot,
52748109685,3088.0,NIKON CORPORATION,NIKON D810,0.8,16.0,Manual,64.0,"Off, Did not fire",16.0,Uncalibrated,16.0-35.0 mm f/4.0,43.574218,-6.044820,Asturias,Asturias,Spain,Multi-segment,
52822512507,3082.0,SONY,ILCE-1,0.001,8.0,Manual,3200.0,"Off, Did not fire",24.0,Uncalibrated,FE 24-70mm F2.8 GM,51.501369,-0.123424,Greater London,England,UK,Multi-segment,
52787995373,3008.0,Canon,Canon EOS-1Ds Mark III,0.008,8.0,Manual,200.0,No Flash,63.0,sRGB,EF24-70mm f/2.8L II USM,22.615536,105.863034,Greater London,T?nh Cao B?ng,Vietnam,Multi-segment,
52721377496,2970.0,Canon,Canon EOS 1200D,0.008,11.0,Landscape,100.0,"Off, Did not fire",18.0,sRGB,18-200mm,39.622722,19.929360,Nomós Kerkýras,Ionian Islands,Greece,Multi-segment,
52876776536,2961.0,NIKON CORPORATION,NIKON D850,0.005,8.0,Aperture-priority AE,250.0,No Flash,40.0,Uncalibrated,24.0-70.0 mm f/2.8,31.620666,74.875952,Amritsar,Punjab,India,Multi-segment,
52708356095,2911.0,Canon,Canon EOS R5,10.0,11.0,Manual,100.0,No Flash,70.0,sRGB,EF24-70mm f/4L IS USM,57.880149,-6.936944,Western Isles,Scotland,UK,Multi-segment,
52807891094,2906.0,NIKON CORPORATION,NIKON D850,0.005,9.0,Manual,64.0,No Flash,44.0,sRGB,24.0-120.0 mm f/4.0,42.244960,-83.101136,Western Isles,Ontario,Canada,Center-weighted average,
52799863168,2894.0,OLYMPUS CORPORATION,E-M10MarkII,0.3,8.0,Manual,100.0,"On, Did not fire",12.0,sRGB,OLYMPUS M.12-40mm F2.8,51.322407,21.951370,Powiat pulawski,Lublin,Poland,Center-weighted average,
52811839639,2869.0,Canon,Canon EOS 6D,0.003125,5.0,Manual,200.0,"Off, Did not fire",79.0,Uncalibrated,EF70-300mm f/4-5.6 IS II USM,46.538657,11.627204,South Tyrol,Trentino-Alto Adige,Italy,Multi-segment,
52847141863,2868.0,NIKON CORPORATION,NIKON D5300,1.0,22.0,Manual,100.0,No Flash,18.0,sRGB,10.0-20.0 mm f/4.5-5.6,51.503805,-0.073387,Greater London,England,UK,Spot,
52755438047,2864.0,Canon,Canon EOS R6,0.0025,8.0,Manual,100.0,No Flash,24.0,sRGB,EF11-24mm f/4L USM,-30.302998,153.146708,Coffs Harbour,New South Wales,Australia,Multi-segment,
52756956469,2806.0,Canon,Canon EOS-1Ds Mark III,0.00625,5.6,Aperture-priority AE,200.0,No Flash,24.0,sRGB,EF70-300mm f/4-5.6L IS USM,22.360157,103.763680,Limburg Province,T?nh Lai Châu,Vietnam,Multi-segment,
52708091191,2804.0,samsung,SM-G998U,0.008333333333333333,1.8,Program AE,250.0,No Flash,6.7,Uncalibrated,Samsung Galaxy S21 Ultra Rear Main Camera,38.305119,-84.694931,Scott,Kentucky,United States,Center-weighted average,
52812971449,2791.0,samsung,SM-G998U,0.008333333333333333,1.8,Program AE,250.0,No Flash,6.7,Uncalibrated,Samsung Galaxy S21 Ultra Rear Main Camera,59.859359,17.634437,Uppsala Municipality,Uppsala,Sweden,Center-weighted average,
52768032622,2790.0,SONY,SLT-A99V,63.0,8.0,Manual,100.0,"Off, Did not fire",40.0,sRGB,----,43.565163,-6.149737,Asturias,Asturias,Spain,Multi-segment,
52859116631,2779.0,NIKON CORPORATION,NIKON D750,0.025,11.0,Manual,200.0,"Off, Did not fire",15.0,sRGB,14.0-24.0 mm f/2.8,46.519665,12.017143,Province of Belluno,Veneto,Italy,Multi-segment,
52893772189,2751.0,NIKON CORPORATION,NIKON Z 6,0.01,14.0,Aperture-priority AE,100.0,No Flash,15.0,sRGB,NIKKOR Z 14-30mm f/4 S,47.729161,13.478361,Politischer Bezirk Salzburg-Umgebung,Salzburg,Austria,Multi-segment,
52692959473,2739.0,Canon,Canon EOS-1Ds Mark III,0.04,8.0,Manual,400.0,No Flash,180.0,sRGB,EF180mm f/3.5L Macro USM,22.319311,103.858029,Politischer Bezirk Salzburg-Umgebung,T?nh Lào Cai,Vietnam,Multi-segment,
52805479605,2708.0,NIKON CORPORATION,NIKON D7000,0.000125,9.0,Aperture-priority AE,1000.0,"Off, Did not fire",70.0,Uncalibrated,TAMRON SP 70-300mm F4-5.6 Di VC USD A005N,59.660981,17.393191,Håbo Municipality,Uppsala,Sweden,Multi-segment,
52775813763,2704.0,OLYMPUS CORPORATION,E-M10MarkIV,0.0004,4.0,Aperture-priority AE,200.0,Unknown (0x48),45.0,sRGB,OLYMPUS M.45mm F1.8,47.649452,9.481190,Tübingen,Baden-Württemberg,Germany,Multi-segment,
52806628505,2697.0,OLYMPUS CORPORATION,E-M10MarkIV,0.0004,4.0,Aperture-priority AE,200.0,Unknown (0x48),45.0,sRGB,OLYMPUS M.45mm F1.8,48.233649,16.402587,Vienna,Vienna,Austria,Multi-segment,
52701067828,2682.0,Canon,Canon EOS 6D Mark II,0.00125,6.3,Aperture-priority AE,320.0,"Off, Did not fire",45.0,Uncalibrated,EF24-105mm f/4L IS USM,49.274047,-123.155228,Greater Vancouver Regional District,British Columbia,Canada,Multi-segment,
52750378386,2678.0,samsung,SM-A525F,0.0001893222264293828,1.8,Program AE,40.0,No Flash,5.2,sRGB,EF24-105mm f/4L IS USM,42.205751,18.936691,Greater Vancouver Regional District,Budva,Montenegro,Center-weighted average,
52792558552,2664.0,Canon,Canon EOS 6D,0.000625,7.1,Aperture-priority AE,200.0,"Off, Did not fire",150.0,sRGB,EF70-200mm f/4L IS USM,65.675091,-20.665369,Greater Vancouver Regional District,Northwest,Iceland,Center-weighted average,
52825905377,2653.0,Canon,Canon EOS 6D,0.016666666666666666,13.0,Aperture-priority AE,250.0,"Off, Did not fire",60.0,sRGB,EF24-105mm f/4L IS USM,48.921667,2.039744,Yvelines,Île-de-France,France,Center-weighted average,
52757002654,2649.0,NIKON CORPORATION,NIKON D80,0.005,10.0,Not Defined,320.0,"Off, Did not fire",70.0,Uncalibrated,70.0-300.0 mm f/4.5-5.6,59.782288,17.631831,Uppsala Municipality,Uppsala,Sweden,Multi-segment,
52708235825,2636.0,Canon,Canon EOS 5D Mark IV,0.0025,8.0,Aperture-priority AE,200.0,"Off, Did not fire",35.0,sRGB,EF24-105mm f/4L IS USM,51.713455,4.082191,Gemeente Goeree-Overflakkee,South Holland,Holland,Multi-segment,
52777015285,2614.0,Canon,Canon EOS 5D Mark IV,0.02,7.1,Aperture-priority AE,200.0,"Off, Did not fire",58.0,sRGB,EF24-105mm f/4L IS USM,51.740405,4.058272,Wakefield,South Holland,Holland,Multi-segment,
52810762167,2589.0,samsung,SM-G975F,0.00046468401486988845,2.4,Program AE,50.0,No Flash,4.3,sRGB,EF50mm f/1.4 USM,35.191141,25.718646,Lasithi,Crete,Greece,Center-weighted average,
52719381943,2573.0,samsung,SM-G991B,0.00030003000300030005,1.8,Program AE,50.0,No Flash,5.4,sRGB,EF50mm f/1.4 USM,52.112972,-4.684670,Ceredigion,Wales,UK,Center-weighted average,
52708610292,2554.0,Canon,Canon EOS 80D,0.005,9.0,Program AE,100.0,"Off, Did not fire",29.0,sRGB,EF-S18-55mm f/3.5-5.6 IS STM,32.235881,-80.749640,Beaufort,South Carolina,United States,Multi-segment,
52809525650,2458.0,Canon,Canon EOS 5D Mark III,0.005,16.0,Manual,100.0,"Off, Did not fire",70.0,Uncalibrated,EF24-70mm f/2.8L II USM,-23.334471,43.895635,Toliara II District,Atsimo-Andrefana,Madagascar,Partial,
52764403246,2450.0,Canon,Canon EOS 6D,0.00025,7.1,Aperture-priority AE,400.0,"Off, Did not fire",105.0,sRGB,EF24-105mm f/4L IS USM,64.122592,-19.816246,Toliara II District,South,Iceland,Center-weighted average,
52871183049,2429.0,Apple,iPhone 12 Pro,0.0036900369003690036,2.0,Program AE,25.0,"Off, Did not fire",6.0,Uncalibrated,iPhone 12 Pro back triple camera 6mm f/2,26.185475,-80.096100,Broward,Florida,United States,Multi-segment,
52752637201,2407.0,Canon,Canon EOS 5D Mark IV,0.003125,8.0,Aperture-priority AE,200.0,"Off, Did not fire",28.0,sRGB,EF24-105mm f/4L IS USM,51.741188,4.057975,Asturias,South Holland,Holland,Multi-segment,
52850938459,2392.0,samsung,SM-G975F,0.01,2.4,Program AE,50.0,No Flash,6.0,sRGB,EF24-105mm f/4L IS USM,35.335098,25.331629,Nomós Irakleíou,Crete,Greece,Center-weighted average,
52847332316,2386.0,samsung,SM-G975F,0.000591016548463357,2.4,Program AE,50.0,No Flash,6.0,sRGB,EF24-105mm f/4L IS USM,35.334948,25.274902,Nomós Irakleíou,Crete,Greece,Center-weighted average,
52811946625,2371.0,SONY,SLT-A65V,0.01,13.0,Manual,200.0,"Off, Did not fire",17.0,Uncalibrated,17-50mm F2.8,53.327827,6.232611,Noardeast-Fryslân,Friesland,Holland,Multi-segment,
52872544411,2371.0,SONY,ILCE-7RM2,0.003125,8.0,Manual,100.0,"Off, Did not fire",23.0,sRGB,FE 16-35mm F4 ZA OSS,46.463316,9.185822,Region Moesa,Grisons,Switzerland,Spot,
52865178455,2368.0,SONY,ILCE-7RM2,0.0015625,8.0,Manual,100.0,"Off, Did not fire",16.0,sRGB,FE 16-35mm F4 ZA OSS,47.429433,9.102797,Wahlkreis Wil,Saint Gall,Switzerland,Spot,
52702509239,2359.0,NIKON CORPORATION,NIKON D810,74.0,8.0,Manual,64.0,"Off, Did not fire",16.0,Uncalibrated,16.0-35.0 mm f/4.0,44.708529,-1.221445,Gironde,Nouvelle-Aquitaine,France,Multi-segment,
52811697823,2356.0,NIKON CORPORATION,NIKON D810,74.0,8.0,Manual,64.0,"Off, Did not fire",16.0,Uncalibrated,16.0-35.0 mm f/4.0,35.241934,139.020760,Ashigarashimo-gun,Kanagawa,Japan,Multi-segment,
52869211832,2354.0,NIKON CORPORATION,NIKON D850,0.0025,9.0,Aperture-priority AE,200.0,No Flash,50.0,Uncalibrated,24.0-70.0 mm f/2.8,31.620827,74.876511,Amritsar,Punjab,India,Multi-segment,
52853711988,2352.0,Canon,Canon EOS 70D,0.003125,8.0,Aperture-priority AE,100.0,"Off, Did not fire",28.0,sRGB,18-200mm F3.5-6.3 DC MACRO OS HSM | Contemporary 014,49.635924,8.375581,,Rheinland-Pfalz,Germany,Multi-segment,
52763849890,2331.0,Canon,Canon EOS-1Ds Mark III,0.04,8.0,Manual,200.0,No Flash,42.0,sRGB,EF24-70mm f/2.8L II USM,22.319311,103.858029,,T?nh Lào Cai,Vietnam,Multi-segment,
52862467573,2330.0,PENTAX,PENTAX K-5,0.01,8.0,Manual,100.0,"Off, Did not fire",70.0,sRGB,EF24-70mm f/2.8L II USM,61.753996,16.913280,Hudiksvalls Kommun,Gävleborg,Sweden,Center-weighted average,
52767931249,2254.0,Canon,Canon EOS 5D Mark II,0.008,11.0,Aperture-priority AE,200.0,"Off, Did not fire",160.0,sRGB,EF24-105mm f/4L IS USM,20.979392,104.579887,Hudiksvalls Kommun,T?nh Son La,Vietnam,Multi-segment,
52693529258,2237.0,Canon,Canon EOS 700D,0.5,4.0,Manual,200.0,"Off, Did not fire",10.0,sRGB,10-20mm,51.820146,7.229014,Regierungsbezirk Münster,Northrhine-Westphalia,Germany,Partial,
52808604412,2201.0,NIKON CORPORATION,NIKON D850,0.004,6.3,Manual,64.0,No Flash,19.0,Uncalibrated,17.0-35.0 mm f/2.8,34.980816,135.748397,Kyoto,Kyoto,Japan,Multi-segment,
52720121655,2136.0,NIKON CORPORATION,NIKON D850,10.0,5.6,Manual,200.0,No Flash,42.0,Uncalibrated,24.0-70.0 mm f/2.8,51.902096,4.478770,Gemeente Rotterdam,South Holland,Holland,Multi-segment,
52805763847,2075.0,SONY,SLT-A65V,0.0008,7.1,Manual,400.0,"Off, Did not fire",400.0,Uncalibrated,----,21.865483,-102.259753,Aguascalientes,Aguascalientes,Mexico,Multi-segment,
52738798031,2026.0,SONY,DSC-H400,0.001,5.4,Program AE,200.0,No Flash,15.0,sRGB,----,46.663397,-72.520003,Mauricie,Quebec,Canada,Multi-spot,
52704715695,1878.0,SONY,DSC-H400,0.0015625,3.9,Program AE,100.0,No Flash,7.1,sRGB,----,46.886689,-72.301080,Mauricie,Quebec,Canada,Multi-spot,
52821669647,1847.0,NIKON CORPORATION,NIKON D850,5.0,22.0,Manual,64.0,No Flash,18.0,Uncalibrated,14.0-24.0 mm f/2.8,37.329409,-98.584476,Barber,Kansas,United States,Spot,
52693560307,1845.0,NIKON CORPORATION,NIKON D750,0.001,10.0,Not Defined,200.0,"Off, Did not fire",34.0,sRGB,24.0-120.0 mm f/4.0,20.620096,-87.073980,Solidaridad,Quintana Roo,Mexico,Multi-segment,
52832345635,1840.0,SONY,ILCE-7RM4,0.003125,9.0,Manual,100.0,"Off, Did not fire",24.0,Uncalibrated,Sony FE 24-70mm F2.8 GM (SEL2470GM),44.049637,-86.488323,Mason,Michigan,United States,Center-weighted average,
52747323755,1829.0,SONY,DSC-H400,0.001,5.7,Program AE,200.0,No Flash,15.0,sRGB,NIKKOR Z 70-200mm f/2.8 VR S,46.668021,-72.508931,Mauricie,Quebec,Canada,Multi-spot,
52722773807,1794.0,Canon,Canon EOS REBEL T3i,30.0,3.5,Manual,100.0,"Off, Did not fire",18.0,Uncalibrated,TAMRON 18-270mm F/3.5-6.3 DiII VC PZD B008E,40.692423,-99.131380,Buffalo,Nebraska,United States,Multi-segment,
52706690332,1718.0,NIKON CORPORATION,NIKON D850,0.01,13.0,Manual,100.0,No Flash,70.0,Uncalibrated,70.0-200.0 mm f/2.8,37.954327,15.759625,Provincia di Reggio Calabria,Calabria,Italy,Multi-segment,
52775743196,1576.0,Canon,Canon EOS 5D Mark II,0.025,5.6,Manual,640.0,"Off, Did not fire",70.0,sRGB,EF70-200mm f/4L USM,-12.466654,130.839582,Darwin,Northern Territory,Australia,Center-weighted average,
52786620480,1565.0,NIKON CORPORATION,NIKON D850,0.6,8.0,Aperture-priority AE,800.0,No Flash,21.0,Uncalibrated,15-30 mm f/2.8,-40.759252,145.298738,Circular Head Council,Tasmania,Australia,Multi-segment,
52720997070,1526.0,Canon,Canon EOS REBEL T3i,15.0,3.5,Manual,100.0,"Off, Did not fire",18.0,Uncalibrated,TAMRON 18-270mm F/3.5-6.3 DiII VC PZD B008E,40.692423,-99.131380,Buffalo,Nebraska,United States,Multi-segment,
52734408125,1521.0,Canon,Nikon D7200,15.0,8.0,Manual,640.0,"Off, Did not fire",52.0,Uncalibrated,TAMRON 18-270mm F/3.5-6.3 DiII VC PZD B008E,36.055786,-85.529465,White,Tennessee,United States,Multi-segment,
52742947516,1431.0,Canon,Nikon D7200,15.0,8.0,Manual,640.0,"Off, Did not fire",52.0,sRGB,TAMRON 18-270mm F/3.5-6.3 DiII VC PZD B008E,45.938713,7.729901,Visp District,Valais,Switzerland,Multi-segment,
52784553174,1427.0,NIKON CORPORATION,NIKON D850,0.02,8.0,Aperture-priority AE,400.0,No Flash,35.0,Uncalibrated,Nikon AF-S NIKKOR 24-120mm f/4G ED VR,-40.749118,145.293481,Circular Head Council,Tasmania,Australia,Multi-segment,
52717920118,1354.0,NIKON CORPORATION,NIKON D5300,0.0008,4.5,Not Defined,400.0,"Off, Did not fire",18.0,sRGB,Nikon AF-S NIKKOR 24-120mm f/4G ED VR,52.711417,-1.164582,Leicestershire,England,UK,Multi-segment,
52715999252,1301.0,FUJIFILM,X-T5,0.0025,5.0,Program AE,800.0,No Flash,18.0,Uncalibrated,XF18-55mmF2.8-4 R LM OIS,36.116936,-115.445467,Clark,Nevada,United States,Multi-segment,
52720095871,1288.0,"OLYMPUS IMAGING CORP.  ","E-M1            ",0.004,5.6,Creative (Slow speed),250.0,"Auto, Did not fire",150.0,Unknown (0),OLYMPUS M.14-150mm F4.0-5.6,44.502217,11.091307,Bologna,Emilia-Romagna,Italy,Multi-segment,
52791160732,1267.0,NIKON CORPORATION,NIKON D850,0.00625,5.6,Manual,200.0,No Flash,14.0,Uncalibrated,14.0-24.0 mm f/2.8,31.909971,-97.569442,Bosque,Texas,United States,Spot,
52825257599,1216.0,Canon,Canon PowerShot SX40 HS,0.000625,8.0,Aperture-priority AE,200.0,"Off, Did not fire",130.0,sRGB,OLYMPUS M.12-50mm F3.5-6.3,33.199213,-117.388830,San Diego,California,United States,Multi-segment,
52757045863,1203.0,Canon,Canon EOS 6D Mark II,0.008,9.0,Aperture-priority AE,100.0,"Off, Did not fire",85.0,Uncalibrated,EF24-105mm f/4L IS II USM,43.487988,4.406705,Bouches-du-Rhône,Provence-Alpes-Côte d&#039;Azur,France,Center-weighted average,
52789483252,1176.0,FUJIFILM,X-T2,0.004,10.0,Manual,200.0,No Flash,26.6,Uncalibrated,XF18-135mmF3.5-5.6R LM OIS WR,11.840050,99.819502,Bouches-du-Rhône,Changwat Prachuap Khiri Khan,Thailand,Spot,
52731894733,1135.0,NIKON CORPORATION,NIKON D750,1.0,11.0,Manual,64.0,"Off, Did not fire",19.0,sRGB,18.0-35.0 mm f/3.5-4.5,50.547321,-3.491270,Devon,England,UK,Center-weighted average,
52771790296,1033.0,NIKON CORPORATION,NIKON Z 50,0.003125,11.0,Not Defined,100.0,"Off, Did not fire",26.5,sRGB,NIKKOR Z DX 16-50mm f/3.5-6.3 VR,53.169594,5.414221,Gemeente Harlingen,Friesland,Holland,Multi-segment,
52789657151,1027.0,LEICA CAMERA AG,D-Lux 7,0.008,2.8,Aperture-priority AE,250.0,"Off, Did not fire",34.0,sRGB,NIKKOR Z DX 16-50mm f/3.5-6.3 VR,45.325674,14.457299,Gemeente Harlingen,Primorsko-Goranska Županija,Croatia,Center-weighted average,
52870497045,1019.0,NIKON CORPORATION,NIKON D7100,0.0005,5.6,Manual,200.0,"Off, Did not fire",35.0,Uncalibrated,NIKKOR Z DX 16-50mm f/3.5-6.3 VR,36.730440,-3.682941,Granada,Andalusia,Spain,Spot,
52706364847,994.0,SONY,ILCA-68,0.004,11.0,Aperture-priority AE,400.0,"Off, Did not fire",75.0,sRGB,24-105mm F3.5-4.5,43.978857,10.140295,Province of Massa-Carrara,Tuscany,Italy,Multi-segment,
52849604378,980.0,NIKON CORPORATION,NIKON D850,0.016666666666666666,11.0,Manual,100.0,No Flash,50.0,Uncalibrated,50.0 mm f/1.4,45.284420,11.776602,Padua,Veneto,Italy,Multi-segment,
52862035801,967.0,samsung,SM-G990B2,0.01,1.8,Program AE,250.0,No Flash,5.4,sRGB,50.0 mm f/1.4,42.357130,-2.848628,La Rioja,La Rioja,Spain,Center-weighted average,
52851268825,949.0,NIKON CORPORATION,NIKON D750,0.0005,4.0,Manual,100.0,"Off, Did not fire",24.0,Uncalibrated,24.0-70.0 mm f/2.8,45.491788,22.068250,Comuna Copacele,Caras-Severin,Romania,Multi-segment,
52803830470,915.0,Hasselblad,L2D-20c,0.01,9.0,Manual,100.0,No Flash,12.3,Uncalibrated,12.3-29.9 mm f/2.8-4.4,46.615841,13.917908,Villach Stadt,Carinthia,Austria,Average,
52768699874,829.0,Google,Pixel 6,0.001564945226917058,1.9,Program AE,31.0,"Off, Did not fire",6.8,sRGB,Pixel 6 back camera 6.81mm f/1.85,52.466619,-0.932706,Northamptonshire,England,UK,Center-weighted average,
52692542063,754.0,Canon,Canon EOS 7D Mark II,0.03333333333333333,2.8,Program AE,200.0,"Off, Did not fire",24.0,sRGB,EF-S17-55mm f/2.8 IS USM,64.214663,-21.344620,Northamptonshire,Capital,Iceland,Partial,
52720478815,716.0,NIKON CORPORATION,NIKON Z 7_2,0.005,9.0,Aperture-priority AE,400.0,No Flash,14.0,sRGB,NIKKOR Z 14-30mm f/4 S,53.815816,-3.057323,Blackpool,England,UK,Multi-segment,
52738690858,671.0,LEICA,D-LUX (Typ 109),0.005,5.6,Aperture-priority AE,200.0,"Off, Did not fire",34.0,Uncalibrated,-- mm f/--,45.357875,7.337722,Turin,Piedmont,Italy,Multi-segment,
52828074591,662.0,SONY,ILCE-7M2,0.005,11.0,Program AE,100.0,"Off, Did not fire",28.0,sRGB,E 28-200mm F2.8-5.6 A071,44.418428,-110.806496,Teton,Wyoming,United States,Multi-segment,
52830975571,578.0,Hasselblad,L2D-20c,0.6,5.6,Manual,100.0,No Flash,12.3,sRGB,24.0 mm f/2.8,-33.457587,151.441652,Central Coast,New South Wales,Australia,Average,
52812851691,547.0,SONY,DSC-HX9V,0.002,5.6,Program AE,400.0,"Auto, Did not fire",45.6,sRGB,24.0 mm f/2.8,46.833501,9.803469,Region Prättigau / Davos,Grisons,Switzerland,Center-weighted average,
52732230319,480.0,Panasonic,DMC-TZ70,0.0007692307692307692,3.9,Landscape,80.0,"Off, Did not fire",7.8,Uncalibrated,LEICA DG SUMMILUX 15/F1.7,41.880369,-87.647134,Cook,Illinois,United States,Multi-segment,
52822987700,467.0,Canon,Canon EOS 70D,0.002,10.0,Landscape,100.0,"Off, Did not fire",122.0,sRGB,EF-S18-135mm f/3.5-5.6 IS STM,64.863287,-21.432309,Cook,West,Iceland,Multi-segment,
52769852380,444.0,FUJIFILM,X-T5,0.002,4.0,Manual,125.0,No Flash,16.0,sRGB,Fujifilm Fujinon XF16-55mmF2.8 R LM WR,41.395813,2.162944,Barcelona,Catalonia,Spain,Multi-segment,
52720207395,389.0,Hasselblad,L2D-20c,0.6,2.8,Manual,100.0,No Flash,12.3,sRGB,24.0 mm f/2.8,-33.429670,151.448044,Central Coast,New South Wales,Australia,Average,
52800087760,330.0,SONY,DSC-RX10M4,0.004,7.1,Program AE,100.0,"Off, Did not fire",8.8,sRGB,24.0 mm f/2.8,43.069834,11.636278,Province of Siena,Tuscany,Italy,Multi-segment,
52823453487,286.0,Hasselblad,L2D-20c,0.125,11.0,Manual,100.0,No Flash,12.3,sRGB,24.0 mm f/2.8,-33.457642,151.441655,Central Coast,New South Wales,Australia,Average,
52707635342,241.0,Canon,Canon EOS 80D,0.00625,5.6,Aperture-priority AE,100.0,"Off, Did not fire",58.0,sRGB,TAMRON SP 24-70mm F/2.8 Di VC USD G2 A032,44.641936,-1.093895,Gironde,Nouvelle-Aquitaine,France,Multi-segment,
52722015842,224.0,Hasselblad,L2D-20c,0.125,2.8,Manual,400.0,No Flash,12.3,sRGB,24.0 mm f/2.8,-33.457373,151.441425,Central Coast,New South Wales,Australia,Average,
52734870062,146.0,Canon,Canon EOS 7D Mark II,0.0003125,4.0,Aperture-priority AE,100.0,"Off, Did not fire",18.0,Uncalibrated,EF-S17-55mm f/2.8 IS USM,31.312389,-86.500028,Covington,Alabama,United States,Multi-segment,
52719940851,64.0,NIKON CORPORATION,NIKON D7200,0.005,8.0,Aperture-priority AE,200.0,"Off, Did not fire",24.0,sRGB,12.0-24.0 mm f/4.0,55.798113,-4.615748,Renfrewshire,Scotland,UK,Multi-segment,
52771567623,175242.0,Canon,Canon EOS 80D,0.008,7.1,Program AE,100.0,"Off, Did not fire",18.0,sRGB,EF-S18-55mm f/3.5-5.6 IS STM,32.241490,-80.684055,Beaufort,South Carolina,United States,Multi-segment,clouds
52716318989,98470.0,Canon,Canon EOS 80D,0.008,7.1,Program AE,100.0,"Off, Did not fire",43.0,sRGB,EF-S18-55mm f/3.5-5.6 IS STM,32.137845,-80.754940,Beaufort,South Carolina,United States,Multi-segment,clouds
52738214655,96487.0,Canon,Canon EOS 80D,0.008,7.1,Program AE,100.0,"Off, Did not fire",43.0,sRGB,EF-S18-55mm f/3.5-5.6 IS STM,57.505644,-6.170489,Highland,Scotland,UK,Multi-segment,clouds
52810256105,90122.0,NIKON CORPORATION,NIKON D700,0.008,4.0,Aperture-priority AE,200.0,No Flash,50.0,sRGB,AF-S Nikkor 24-120mm f/4G ED VR,57.629722,-6.290713,Highland,Scotland,UK,Multi-segment,clouds
52701426027,74829.0,NIKON CORPORATION,NIKON Z 5,8.0,8.0,Manual,100.0,No Flash,50.0,sRGB,0.0 mm f/0.0,,,,,,Center-weighted average,clouds
52717011467,67313.0,OLYMPUS CORPORATION,E-M10MarkII,0.0125,8.0,Manual,100.0,"On, Did not fire",17.0,sRGB,OLYMPUS M.12-40mm F2.8,51.322407,21.951370,Powiat pulawski,Lublin,Poland,Center-weighted average,clouds
52883048474,65223.0,Panasonic,DC-GX9,0.03333333333333333,4.0,Aperture-priority AE,100.0,"Off, Did not fire",12.0,Uncalibrated,LUMIX G VARIO 12-35/F2.8,7.735996,98.777647,Powiat pulawski,Changwat Krabi,Thailand,Multi-segment,clouds
52795391775,62260.0,PENTAX,PENTAX K-5,0.01,4.0,Manual,100.0,"Off, Did not fire",70.0,Uncalibrated,LUMIX G VARIO 12-35/F2.8,61.768328,17.085460,Hudiksvalls Kommun,Gävleborg,Sweden,Center-weighted average,clouds
52813081167,62198.0,NIKON CORPORATION,NIKON Z 7_2,0.008,8.0,Manual,64.0,No Flash,16.5,sRGB,NIKKOR Z 14-24mm f/2.8 S,67.949997,13.135056,Moskenes,Nordland,Norway,Multi-segment,clouds
52826844101,61352.0,NIKON CORPORATION,NIKON D750,0.0015625,9.0,Aperture-priority AE,100.0,"Off, Did not fire",60.0,Uncalibrated,TAMRON SP 24-70mm F/2.8 Di VC USD G2 A032N,,,,,,Multi-segment,clouds
52753040484,60094.0,SONY,SLT-A65V,0.00625,5.0,Manual,400.0,"Off, Did not fire",17.0,Uncalibrated,17-50mm F2.8,46.594827,12.264530,Province of Belluno,Veneto,Italy,Multi-segment,clouds
52755336609,53034.0,Canon,Canon EOS 5DS R,30.0,5.6,Manual,1600.0,"Off, Did not fire",14.0,sRGB,14-24mm F2.8 DG HSM | Art 018,,,,,,Multi-segment,clouds
52874602763,46014.0,SONY,SLT-A65V,0.01,11.0,Manual,200.0,"Off, Did not fire",28.0,Uncalibrated,17-50mm F2.8,46.544088,11.641233,South Tyrol,Trentino-Alto Adige,Italy,Multi-segment,clouds
52799745105,34947.0,Panasonic,DC-GX9,0.004,7.1,Aperture-priority AE,100.0,"Off, Did not fire",12.0,Uncalibrated,LUMIX G VARIO 12-35/F2.8,39.852681,2.802532,Balearic Islands,Balearic Islands,Spain,Multi-segment,clouds
52787038136,34663.0,Canon,Canon EOS 600D,0.001,9.0,Aperture-priority AE,200.0,"Off, Did not fire",17.0,sRGB,17-50mm,,,,,,Multi-segment,clouds
52806632805,33599.0,Canon,Canon EOS 5D Mark IV,0.000625,11.0,Aperture-priority AE,800.0,"Off, Did not fire",28.0,sRGB,EF24-105mm f/4L IS USM,52.350604,13.001654,,Brandenburg,Germany,Spot,clouds
52748625999,30028.0,Panasonic,DMC-TZ1,0.005,4.1,Program AE,80.0,"Off, Did not fire",28.2,sRGB,EF24-105mm f/4L IS USM,-28.121063,153.475162,Gold Coast,Queensland,Australia,Multi-segment,clouds
52808644995,25757.0,Canon,Canon EOS 80D,0.004,10.0,Program AE,100.0,"Off, Did not fire",18.0,sRGB,EF-S18-55mm f/3.5-5.6 IS STM,44.726178,-110.703831,Park,Wyoming,United States,Multi-segment,clouds
52745973456,23754.0,Canon,Canon EOS 80D,0.005,9.0,Program AE,100.0,"Off, Did not fire",24.0,sRGB,EF-S18-55mm f/3.5-5.6 IS STM,32.138117,-80.754060,Beaufort,South Carolina,United States,Multi-segment,clouds
52765716674,23367.0,FUJIFILM,X-E1,0.0025,7.1,Program AE,200.0,"Off, Did not fire",18.0,sRGB,XF18-55mmF2.8-4 R LM OIS,67.928394,13.084193,Moskenes,Nordland,Norway,Average,clouds
52769312209,23262.0,FUJIFILM,X-E1,0.0025,7.1,Program AE,200.0,"Off, Did not fire",18.0,sRGB,XF18-55mmF2.8-4 R LM OIS,,,,,,Average,clouds
52809881356,23165.0,Panasonic,DMC-FZ1000,0.0025,7.1,Shutter speed priority AE,200.0,"Off, Did not fire",18.0,sRGB,XF18-55mmF2.8-4 R LM OIS,50.112184,-125.342888,Strathcona Regional District,British Columbia,Canada,Center-weighted average,clouds
52818386716,23133.0,NIKON CORPORATION,NIKON Z 7_2,0.06666666666666667,9.0,Aperture-priority AE,64.0,No Flash,11.0,sRGB,11mm f/4G,57.875446,12.796690,Borås,Västra Götaland,Sweden,Multi-segment,clouds
52885433482,22219.0,"RICOH IMAGING COMPANY, LTD.",RICOH GR III,0.001,5.6,Aperture-priority AE,100.0,"Off, Did not fire",18.3,Uncalibrated,11mm f/4G,,,,,,Spot,clouds
52886378760,21324.0,NIKON CORPORATION,NIKON D7500,69.0,14.0,Manual,50.0,"Off, Did not fire",13.0,sRGB,11.0-16.0 mm f/2.8,40.804145,14.082015,Naples,Campania,Italy,Multi-segment,clouds
52830909927,21220.0,Canon,Canon EOS 600D,0.002,9.0,Aperture-priority AE,200.0,"Off, Did not fire",28.0,sRGB,28-75mm,,,,,,Multi-segment,clouds
52741680027,21115.0,NIKON CORPORATION,NIKON D80,0.000625,6.3,Aperture-priority AE,100.0,No Flash,270.0,sRGB,18.0-270.0 mm f/3.5-6.3,-34.424781,-72.045575,Provincia de Cardenal Caro,O&#039;Higgins,Chile,Center-weighted average,clouds
52859061094,20768.0,OM Digital Solutions,OM-1,0.0004,6.3,Aperture-priority AE,200.0,"Off, Did not fire",18.0,Uncalibrated,OLYMPUS M.12-40mm F2.8,52.521213,13.368417,,Land Berlin,Germany,Multi-segment,clouds
52818704953,19997.0,OnePlus,OnePlus 9 Pro,0.00020032051282051281,1.9,Not Defined,105.0,"Off, Did not fire",6.1,sRGB,OLYMPUS M.12-40mm F2.8,,,,,,Center-weighted average,clouds
52698604648,19955.0,SONY,ILCE-7RM2,0.0025,4.0,Manual,160.0,"Off, Did not fire",31.0,sRGB,FE 16-35mm F4 ZA OSS,,,,,,Center-weighted average,clouds
52772137586,19782.0,Panasonic,DMC-FZ1000,0.0025,4.0,Shutter speed priority AE,200.0,"Off, Did not fire",31.0,sRGB,FE 16-35mm F4 ZA OSS,50.397083,-125.960751,Strathcona Regional District,British Columbia,Canada,Center-weighted average,clouds
52754575476,19608.0,NIKON CORPORATION,NIKON D7500,0.005,11.0,Aperture-priority AE,100.0,"Off, Did not fire",35.0,Uncalibrated,16.0-85.0 mm f/3.5-5.6,58.022100,-5.171298,Highland,Scotland,UK,Multi-segment,clouds
52701045031,19488.0,samsung,SM-A526B,0.0003125,1.8,Program AE,50.0,No Flash,5.2,sRGB,16.0-85.0 mm f/3.5-5.6,46.794495,13.595954,Spittal an der Drau District,Carinthia,Austria,Center-weighted average,clouds
52803867016,19383.0,NIKON CORPORATION,NIKON Z 7_2,0.001,8.0,Manual,100.0,No Flash,20.0,Uncalibrated,VR 16-35mm f/4G,,,,,,Multi-segment,clouds
52717403878,19088.0,NIKON CORPORATION,NIKON D810,0.016666666666666666,18.0,Manual,64.0,"Off, Did not fire",24.0,sRGB,24.0-120.0 mm f/4.0,,,,,,Multi-segment,clouds
52715850696,18867.0,OLYMPUS CORPORATION,E-M1MarkII,0.0003125,8.0,Aperture-priority AE,200.0,"On, Did not fire",300.0,sRGB,M.40-150mm F2.8 + MC-20,,,,,,Multi-segment,clouds
52770778907,18376.0,SONY,ILCE-7RM3,0.008,16.0,Aperture-priority AE,500.0,"Off, Did not fire",18.0,sRGB,FE 16-35mm F2.8 GM,36.996147,-112.006242,Coconino,Arizona,United States,Spot,clouds
52797887310,17849.0,Canon,Canon EOS 6D,0.00625,14.0,Manual,160.0,"Off, Did not fire",47.0,sRGB,EF24-105mm f/4L IS USM,19.861022,-71.657242,Monte Cristi,Provincia de Monte Cristi,Spanish Haiti,Multi-segment,clouds
52753070608,17678.0,Canon,Canon EOS R6,0.00625,9.0,Aperture-priority AE,250.0,No Flash,70.0,sRGB,EF70-200mm f/4L IS USM,47.324745,10.267066,Swabia,Bavaria,Germany,Multi-segment,clouds
52891166219,17317.0,NIKON CORPORATION,NIKON D850,2.0,11.0,Aperture-priority AE,100.0,No Flash,24.0,sRGB,EF70-200mm f/4L IS USM,-51.090369,-73.035392,Provincia de Última Esperanza,Region of Magallanes,Chile,Multi-segment,clouds
52834704158,17029.0,SONY,ILCE-7RM3,0.000625,11.0,Aperture-priority AE,400.0,"Off, Did not fire",15.0,Uncalibrated,Voigtlander SUPER WIDE-HELIAR 15mm F4.5 III,,,,,,Multi-segment,clouds
52872063125,16952.0,NIKON CORPORATION,NIKON Z 7,0.008,7.1,Manual,100.0,No Flash,24.0,Uncalibrated,Nikon NIKKOR Z 24-70mm f/4 S,35.908987,-105.014308,Mora,New Mexico,United States,Center-weighted average,clouds
52732556422,16886.0,Canon,Canon EOS R5,6.0,8.0,Manual,200.0,No Flash,17.0,sRGB,RF15-35mm F2.8 L IS USM,,,,,,Multi-segment,clouds
52851322271,16842.0,Canon,Canon EOS 77D,0.000625,6.3,Aperture-priority AE,100.0,"Off, Did not fire",16.0,sRGB,TAMRON 16-300mm F/3.5-6.3 Di II VC PZD B016,45.155048,14.669301,Dobrinj,Primorsko-Goranska Županija,Croatia,Center-weighted average,clouds
52873561924,16780.0,NIKON CORPORATION,NIKON D850,0.025,11.0,Manual,100.0,No Flash,45.0,Uncalibrated,TAMRON SP 24-70mm F/2.8 Di VC USD G2 A032N,42.513101,13.341333,Province of L&#039;Aquila,Abruzzo,Italy,Multi-segment,clouds
52839427653,16626.0,Panasonic,DC-GX9,0.0025,6.3,Aperture-priority AE,100.0,"Off, Did not fire",12.0,Uncalibrated,LUMIX G VARIO 12-35/F2.8,39.851000,2.808809,Balearic Islands,Balearic Islands,Spain,Multi-segment,clouds
52819753291,16415.0,Canon,Canon EOS 6D,0.005,13.0,Manual,500.0,"Off, Did not fire",100.0,Uncalibrated,EF100mm f/2.8L Macro IS USM,,,,,,Spot,clouds
52884188069,16210.0,SONY,ILCE-7RM5,0.125,4.5,Manual,4000.0,"Off, Did not fire",53.0,sRGB,E 28-105mm F3.5-5.6,45.839406,-89.504832,Oneida,Wisconsin,United States,Multi-segment,clouds
52852430168,16075.0,Apple,iPhone 12 Pro,0.0040650406504065045,2.0,Program AE,25.0,"Off, Did not fire",6.0,Uncalibrated,iPhone 12 Pro back triple camera 6mm f/2,51.509905,-0.094370,Greater London,England,UK,Multi-segment,clouds
52862354378,15950.0,NIKON CORPORATION,NIKON D300S,0.0002,6.3,Manual,2000.0,No Flash,18.0,Uncalibrated,18.0-105.0 mm f/3.5-5.6,,,,,,Multi-segment,clouds
52798588919,15698.0,NIKON CORPORATION,NIKON D7500,0.008,7.1,Aperture-priority AE,200.0,"Off, Did not fire",78.0,sRGB,24-85mm f/3.5-4.5,,,,,,Multi-segment,clouds
52865891161,15657.0,SONY,ILCE-7RM3,0.003125,22.0,Aperture-priority AE,125.0,"Off, Did not fire",35.0,sRGB,FE 16-35mm F2.8 GM,36.993263,-112.007989,Coconino,Arizona,United States,Spot,clouds
52756174590,15649.0,Apple,iPhone X,0.003436426116838488,1.8,Program AE,20.0,"Off, Did not fire",4.0,sRGB,iPhone X back dual camera 4mm f/1.8,51.294619,3.065842,West Flanders,Flanders,Belgium,Multi-segment,clouds
52771999580,15588.0,FUJIFILM,X-H1,0.0035714285714285713,9.0,Aperture-priority AE,800.0,No Flash,30.9,Uncalibrated,XF18-135mmF3.5-5.6R LM OIS WR,,,,,,Multi-segment,clouds
52777447998,15562.0,SONY,ILCE-7RM3,0.025,8.0,Manual,100.0,"Off, Did not fire",85.0,sRGB,85mm F1.4 DG DN | Art 020,,,,,,Multi-segment,clouds
52692601363,15550.0,NIKON CORPORATION,NIKON D7000,0.004,8.0,Not Defined,100.0,"Off, Did not fire",75.0,Uncalibrated,70.0-300.0 mm f/4.5-5.6,60.340560,18.438038,Östhammar Municipality,Uppsala,Sweden,Multi-segment,clouds
52755198114,15458.0,samsung,SM-G975F,0.008695652173913044,2.4,Program AE,50.0,No Flash,6.0,sRGB,70.0-300.0 mm f/4.5-5.6,57.884607,11.592164,Östhammar Municipality,Västra Götaland,Sweden,Center-weighted average,clouds
52776088647,15258.0,NIKON CORPORATION,NIKON D850,0.0025,8.0,Manual,72.0,No Flash,24.0,Uncalibrated,14.0-24.0 mm f/2.8,,,,,,Multi-segment,clouds
52819455254,15150.0,OLYMPUS CORPORATION,E-M1MarkIII,0.0025,5.6,Aperture-priority AE,200.0,"Off, Did not fire",7.0,Uncalibrated,OLYMPUS M.7-14mm F2.8,52.519580,13.379188,,Land Berlin,Germany,Multi-segment,clouds
52750803807,15019.0,NIKON CORPORATION,NIKON D5200,0.008,11.0,Not Defined,180.0,"Off, Did not fire",24.0,sRGB,18.0-55.0 mm f/3.5-5.6,,,,,,Multi-segment,clouds
52817600308,14897.0,NIKON CORPORATION,NIKON Z 6_2,0.00125,7.1,Program AE,100.0,No Flash,56.0,sRGB,NIKKOR Z 24-200mm f/4-6.3 VR,48.115447,9.027166,Tübingen,Baden-Württemberg,Germany,Multi-segment,clouds
52854770916,14738.0,NIKON CORPORATION,NIKON Z 6_2,0.00125,7.1,Program AE,100.0,No Flash,56.0,sRGB,NIKKOR Z 24-200mm f/4-6.3 VR,44.713455,-93.337032,Dakota,Minnesota,United States,Multi-segment,clouds
52865651372,14259.0,Apple,iPhone 13 Pro Max,0.00018800526414739614,1.5,Program AE,50.0,"Off, Did not fire",5.7,Uncalibrated,iPhone 13 Pro Max back triple camera 5.7mm f/1.5,,,,,,Multi-segment,clouds
52808295202,14028.0,Canon,Canon EOS 77D,0.003125,7.1,Aperture-priority AE,100.0,"Off, Did not fire",16.0,sRGB,TAMRON 16-300mm F/3.5-6.3 Di II VC PZD B016,45.154563,14.658422,Dobrinj,Primorsko-Goranska Županija,Croatia,Center-weighted average,clouds
52718733513,13983.0,SONY,SLT-A57,0.003125,7.1,Aperture-priority AE,100.0,"Off, Did not fire",16.0,Uncalibrated,DT 18-70mm F3.5-5.6,43.251860,-80.466356,Waterloo,Ontario,Canada,Center-weighted average,clouds
52845042786,13960.0,DJI,FC3411,0.0008,2.8,Program AE,100.0,No Flash,8.4,sRGB,22.4 mm f/2.8,43.319594,41.773727,Waterloo,Karachayevo-Cherkesiya Republic,Russia,Spot,clouds
52756007422,13773.0,Canon,Canon PowerShot SX740 HS,0.005,4.5,Program AE,100.0,No Flash,11.2,sRGB,22.4 mm f/2.8,61.014061,-149.717388,Anchorage,Alaska,United States,Multi-segment,clouds
52831881469,13601.0,Canon,Canon EOS R6,0.07692307692307693,14.0,Aperture-priority AE,50.0,No Flash,16.0,sRGB,EF16-35mm f/4L IS USM,47.364583,10.303459,Swabia,Bavaria,Germany,Center-weighted average,clouds
52749056755,13452.0,GoPro,HERO5 Black,0.0003333333333333333,2.8,Program AE,100.0,No flash function,3.0,sRGB,EF16-35mm f/4L IS USM,43.027937,12.877285,Provincia di Perugia,Umbria,Italy,Unknown,clouds
52799868940,13314.0,SONY,ILCE-7M4,0.002,9.0,Aperture-priority AE,100.0,"Off, Did not fire",24.0,sRGB,FE 24-105mm F4 G OSS,59.995283,8.799852,Tinn,Telemark,Norway,Multi-segment,clouds
52707814889,13146.0,NIKON CORPORATION,NIKON Z 6,0.05,11.0,Manual,100.0,No Flash,70.0,sRGB,NIKKOR Z 24-70mm f/4 S,52.868122,-118.243128,Tinn,Alberta,Canada,Multi-segment,clouds
52808849587,13022.0,NIKON CORPORATION,NIKON Z 6,0.05,11.0,Manual,100.0,No Flash,70.0,sRGB,NIKKOR Z 24-70mm f/4 S,-38.212692,145.033618,Mornington Peninsula,Victoria,Australia,Multi-segment,clouds
52700305530,12732.0,OLYMPUS CORPORATION,E-M10 Mark III,0.003125,8.0,Program AE,200.0,"Auto, Did not fire",14.0,sRGB,OLYMPUS M.14-42mm F3.5-5.6 II R,53.961808,-1.082209,York,England,UK,Multi-segment,clouds
52707447043,12489.0,NIKON CORPORATION,NIKON D750,30.0,11.0,Manual,200.0,"Off, Did not fire",50.0,sRGB,24.0-120.0 mm f/4.0,,,,,,Multi-segment,clouds
52795360371,12192.0,Canon,Canon EOS 90D,0.004,11.0,Aperture-priority AE,100.0,No Flash,57.0,sRGB,EF-S15-85mm f/3.5-5.6 IS USM,,,,,,Multi-segment,clouds
52772214020,11796.0,NIKON CORPORATION,NIKON D7200,0.25,10.0,Aperture-priority AE,100.0,"Off, Did not fire",10.0,Uncalibrated,10.0-20.0 mm f/3.5,,,,,,Center-weighted average,clouds
52832705296,11695.0,--,--,1.0,2.2,Aperture-priority AE,100.0,No Flash,10.0,Uncalibrated,10.0-20.0 mm f/3.5,,,,,,Center-weighted average,clouds
52708592599,11570.0,NIKON CORPORATION,NIKON Z 6_2,0.005,10.0,Aperture-priority AE,200.0,No Flash,52.0,sRGB,VR 24-70mm f/2.8E,21.740625,-72.285168,Provincia di La Spezia,Liguria,Turks and Caicos Islands,Multi-segment,clouds
52851482728,11440.0,OLYMPUS IMAGING CORP.,E-M1,0.003125,8.0,Creative (Slow speed),200.0,"Auto, Did not fire",12.0,sRGB,OLYMPUS M.12-40mm F2.8,,,,,,Multi-segment,clouds
52706089643,11358.0,FUJIFILM,X-T5,0.00125,5.6,Program AE,125.0,No Flash,22.4,sRGB,XF18-135mmF3.5-5.6R LM OIS WR,40.599356,-73.483085,Suffolk,New York,United States,Multi-segment,clouds
52817335299,11221.0,OLYMPUS CORPORATION,E-M1MarkII,0.04,11.0,Manual,64.0,"On, Did not fire",47.0,sRGB,OLYMPUS M.12-100mm F4.0,,,,,,Spot,clouds
52710055388,11194.0,Canon,Canon EOS 1200D,0.01,5.6,Program AE,400.0,"Off, Did not fire",55.0,Uncalibrated,OLYMPUS M.12-100mm F4.0,14.527606,121.019331,Southern Manila District,Metro Manila,Philippines,Multi-segment,clouds
52745984819,11051.0,FUJIFILM,X-T10,0.009523809523809525,10.0,Aperture-priority AE,200.0,"Off, Did not fire",20.9,Uncalibrated,Fujifilm Fujinon XF10-24mmF4 R OIS,,,,,,Multi-segment,clouds
52771790216,10978.0,FUJIFILM,X-T10,0.002173913043478261,2.4,Program AE,25.0,"Off, Did not fire",1.5,Uncalibrated,iPhone 12 Pro Max back triple camera 1.54mm f/2.4,,,,,,Multi-segment,clouds
52740003924,10959.0,Canon,Canon EOS 80D,0.03333333333333333,11.0,Aperture-priority AE,200.0,"Off, Did not fire",17.0,Uncalibrated,EF-S17-55mm f/2.8 IS USM,56.742692,-3.279386,Angus,Scotland,UK,Partial,clouds
52719416521,10918.0,Apple,iPhone XS,0.00819672131147541,1.8,Program AE,25.0,"Off, Did not fire",4.2,Uncalibrated,iPhone XS back dual camera 4.25mm f/1.8,44.424452,8.800761,Provincia di Genova,Liguria,Italy,Multi-segment,clouds
52805438182,10886.0,samsung,SM-G975F,0.0003453038674033149,2.2,Program AE,50.0,No Flash,1.8,sRGB,iPhone XS back dual camera 4.25mm f/1.8,35.333592,25.218386,Nomós Irakleíou,Crete,Greece,Center-weighted average,clouds
52814338766,10676.0,SONY,ILCE-6400,20.0,11.0,Aperture-priority AE,100.0,"Off, Did not fire",16.0,sRGB,16mm F1.4 DC DN | Contemporary 017,48.400588,-123.485941,Capital Regional District,British Columbia,Canada,Multi-segment,clouds
52798182123,10657.0,Canon,Canon EOS 6D Mark II,0.005,8.0,Aperture-priority AE,160.0,"Off, Did not fire",45.0,Uncalibrated,EF24-105mm f/4L IS USM,49.334002,-122.642520,Greater Vancouver Regional District,British Columbia,Canada,Multi-segment,clouds
52731354746,10476.0,samsung,SM-S908W,0.0013333333333333333,2.4,Aperture-priority AE,40.0,"Off, Did not fire",7.9,sRGB,EF24-105mm f/4L IS USM,48.407098,-123.445472,Capital Regional District,British Columbia,Canada,Multi-segment,clouds
52750774867,10451.0,Canon,Canon EOS 6D,20.0,10.0,Manual,100.0,"Off, Did not fire",32.0,sRGB,EF24-105mm f/4L IS USM,24.547118,-81.787472,Monroe,Florida,United States,Multi-segment,clouds
52704443006,10372.0,NIKON CORPORATION,NIKON Z 7_2,0.8,14.0,Manual,40.0,No Flash,14.0,sRGB,NIKKOR Z 14-30mm f/4 S,56.655308,-4.878643,Highland,Scotland,UK,Multi-segment,clouds
52694104051,10326.0,NIKON CORPORATION,NIKON Z 7_2,0.8,14.0,Manual,40.0,No Flash,14.0,sRGB,NIKKOR Z 14-30mm f/4 S,43.715297,10.395285,Pisa,Tuscany,Italy,Multi-segment,clouds
52730848767,10302.0,Apple,iPhone 13 Pro Max,0.0007178750897343862,1.8,Program AE,32.0,"Off, Did not fire",1.6,Uncalibrated,iPhone 13 Pro Max back triple camera 1.57mm f/1.8,36.996075,-112.006264,Coconino,Arizona,United States,Multi-segment,clouds
52753595384,10278.0,NIKON CORPORATION,NIKON D810,64.0,16.0,Manual,160.0,"Off, Did not fire",20.0,Uncalibrated,16.0-35.0 mm f/4.0,50.058661,-5.710766,Cornwall,England,UK,Multi-segment,clouds
52717831107,9967.0,Canon,Canon EOS 5D Mark III,0.003125,9.0,Program AE,100.0,No Flash,16.0,Uncalibrated,EF16-35mm f/2.8L II USM,-45.034373,168.653775,Queenstown-Lakes District,Otago,New Zealand,Multi-segment,clouds
52871987613,9925.0,Canon,Canon EOS R7,0.004,8.0,Manual,100.0,No Flash,300.0,sRGB,18-300mm F3.5-6.3 DC MACRO OS HSM | Contemporary 014,40.786332,-3.344375,Guadalajara,Castile-La Mancha,Spain,Multi-segment,clouds
52698428931,9847.0,Canon,Canon EOS 6D Mark II,30.0,22.0,Manual,100.0,"Off, Did not fire",105.0,Uncalibrated,EF24-105mm f/3.5-5.6 IS STM,41.604051,2.631139,Barcelona,Catalonia,Spain,Multi-segment,clouds
52755213150,9847.0,SONY,DSC-H300,0.03333333333333333,3.0,Program AE,320.0,No Flash,4.5,Uncalibrated,EF24-105mm f/3.5-5.6 IS STM,36.741635,-3.696266,Granada,Andalusia,Spain,Multi-spot,clouds
52866168900,9844.0,NIKON CORPORATION,NIKON D850,0.004,22.0,Aperture-priority AE,320.0,No Flash,34.0,Uncalibrated,24.0-70.0 mm f/2.8,,,,,,Multi-segment,clouds
52821006900,9665.0,FUJIFILM,X-T5,0.003125,5.6,Program AE,125.0,No Flash,135.0,sRGB,XF18-135mmF3.5-5.6R LM OIS WR,40.599356,-73.483085,Suffolk,New York,United States,Multi-segment,clouds
52823245823,9444.0,SONY,ILCE-7RM3,0.01,10.0,Manual,200.0,No Flash,28.0,Uncalibrated,E 28-75mm F2.8-2.8,,,,,,Multi-segment,clouds
52838136847,9338.0,Canon,Canon EOS M6 Mark II,0.01,9.0,Manual,100.0,No Flash,32.0,sRGB,EF-M32mm f/1.4 STM,,,,,,Multi-segment,clouds
52792595085,9328.0,Canon,Canon EOS 6D Mark II,0.002,8.0,Program AE,100.0,"Off, Did not fire",20.0,sRGB,TAMRON SP 15-30mm F/2.8 Di VC USD G2 A041,40.970755,-1.711281,Guadalajara,Castile-La Mancha,Spain,Multi-segment,clouds
52864527888,9289.0,"RICOH IMAGING COMPANY, LTD.",PENTAX K-3 II,0.0015625,8.0,Program AE,100.0,"Off, Did not fire",15.0,sRGB,TAMRON SP 15-30mm F/2.8 Di VC USD G2 A041,,,,,,Multi-segment,clouds
52815108123,9273.0,samsung,SM-G781B,0.000625,1.8,Program AE,40.0,No Flash,5.4,sRGB,TAMRON SP 15-30mm F/2.8 Di VC USD G2 A041,43.271690,-4.988543,Asturias,Asturias,Spain,Center-weighted average,clouds
52745074252,9267.0,Canon,Canon EOS 6D,0.01,7.1,Manual,100.0,"Off, Did not fire",16.0,sRGB,EF16-35mm f/4L IS USM,,,,,,Spot,clouds
52769113578,9264.0,SONY,ILCE-7RM2,0.04,16.0,Manual,100.0,"Off, Did not fire",17.0,sRGB,E 17-28mm F2.8-2.8,,,,,,Multi-segment,clouds
52747246455,9237.0,NIKON CORPORATION,NIKON D3100,0.0015625,13.0,Program AE,200.0,No Flash,55.0,Uncalibrated,18.0-55.0 mm f/3.5-5.6,56.941876,24.126273,Riga,Riga,Latvia,Center-weighted average,clouds
52766208033,9058.0,samsung,SM-G975F,0.0007861635220125787,2.4,Program AE,50.0,No Flash,4.3,sRGB,18.0-55.0 mm f/3.5-5.6,35.333030,25.212957,Nomós Irakleíou,Crete,Greece,Center-weighted average,clouds
52868975171,9037.0,Canon,Canon EOS 5D Mark IV,0.8,9.0,Aperture-priority AE,50.0,"Off, Did not fire",16.0,sRGB,EF16-35mm f/4L IS USM,43.185367,6.642093,Var,Provence-Alpes-Côte d&#039;Azur,France,Multi-segment,clouds
52811261387,8978.0,SONY,ILCE-7RM3,0.00625,5.0,Aperture-priority AE,320.0,"Off, Did not fire",18.0,Uncalibrated,FE 16-35mm F4 ZA OSS,46.279386,13.867046,Var,Bohinj,Slovenia,Multi-segment,clouds
52824636120,8876.0,NIKON CORPORATION,NIKON Z 6_2,0.0015625,11.0,Manual,100.0,No Flash,24.0,sRGB,NIKKOR Z 14-24mm f/2.8 S,63.879675,-22.448495,Grindavíkurbær,Southern Peninsula,Iceland,Multi-segment,clouds
52820300210,8875.0,Canon,Canon EOS R7,0.0125,8.0,Aperture-priority AE,400.0,No Flash,18.0,sRGB,18-35mm F1.8 DC HSM | Art 013,69.546896,17.654932,Lenvik,Troms,Norway,Multi-segment,clouds
52761859853,8843.0,Apple,iPhone 14 Pro Max,0.0004930966469428008,1.8,Program AE,80.0,"Off, Did not fire",6.9,sRGB,iPhone 14 Pro Max back triple camera 6.86mm f/1.78,53.688044,-2.223337,Lancashire,England,UK,Multi-segment,clouds
52839080373,8824.0,Canon,Canon EOS 750D,0.016666666666666666,5.6,Shutter speed priority AE,1600.0,"Off, Did not fire",76.0,sRGB,EF-S18-135mm f/3.5-5.6 IS STM,48.645448,-2.023394,Ille-et-Vilaine,Brittany,France,Multi-segment,clouds
52767888375,8801.0,Canon,Canon EOS 6D,0.005,16.0,Aperture-priority AE,100.0,"Off, Did not fire",32.0,Uncalibrated,EF24-105mm f/4L IS USM,46.297344,11.788362,Province of Trente,Trentino-Alto Adige,Italy,Spot,clouds
52807811604,8737.0,Canon,Canon EOS 6D,0.005,16.0,Aperture-priority AE,100.0,"Off, Did not fire",32.0,sRGB,EF24-105mm f/4L IS USM,,,,,,Spot,clouds
52810388136,8731.0,NIKON CORPORATION,NIKON D5200,0.004,10.0,Not Defined,200.0,"Off, Did not fire",16.0,Uncalibrated,10.0-24.0 mm f/3.5-4.5,53.324926,-1.643314,Derbyshire,England,UK,Multi-segment,clouds
52785510787,8731.0,SONY,ILCE-7M2,0.004,10.0,Program AE,100.0,"Off, Did not fire",16.0,sRGB,----,42.912406,-122.148208,Jackson,Oregon,United States,Multi-segment,clouds
52799723641,8710.0,NIKON CORPORATION,NIKON D750,0.002,11.0,Not Defined,200.0,"Off, Did not fire",24.0,sRGB,24.0-120.0 mm f/4.0,34.048707,-77.920963,New Hanover,North Carolina,United States,Multi-segment,clouds
52706899773,8689.0,Canon,Canon EOS 6D,0.005,14.0,Aperture-priority AE,800.0,"Off, Did not fire",81.0,sRGB,EF70-200mm f/4L IS USM,48.622073,-1.470193,Manche,Normandy,France,Center-weighted average,clouds
52740412653,8662.0,Canon,Canon EOS R,20.0,9.0,Aperture-priority AE,100.0,No Flash,29.0,sRGB,EF17-40mm f/4L USM,,,,,,Multi-segment,clouds
52754461325,8631.0,SONY,ILCE-6600,0.025,10.0,Aperture-priority AE,100.0,"Off, Did not fire",20.1,sRGB,18-50mm F2.8 DC DN | Contemporary 021,54.192173,-2.907793,Cumbria,England,UK,Multi-segment,clouds
52741833406,8555.0,"RICOH IMAGING COMPANY, LTD.",RICOH GR IIIx,0.004,11.0,Aperture-priority AE,200.0,"Off, Did not fire",26.0,sRGB,18-50mm F2.8 DC DN | Contemporary 021,,,,,,Multi-segment,clouds
52705925611,8448.0,Canon,Canon EOS 90D,0.8,13.0,Manual,100.0,No Flash,18.0,sRGB,EF-S18-135mm f/3.5-5.6 IS USM,,,,,,Multi-segment,clouds
52787862702,8424.0,Hasselblad,L2D-20c,0.06666666666666667,2.8,Manual,240.0,No Flash,12.3,sRGB,24.0 mm f/2.8,-33.470053,151.437913,Central Coast,New South Wales,Australia,Average,clouds
52744116312,8412.0,FUJIFILM,X-E3,0.004166666666666667,8.0,Aperture-priority AE,200.0,No Flash,16.0,Uncalibrated,XF16-80mmF4 R OIS WR,51.382095,-1.284359,West Berkshire,England,UK,Multi-segment,clouds
52891879389,8374.0,Canon,Canon EOS 6D,0.00025,8.0,Aperture-priority AE,400.0,"Off, Did not fire",24.0,sRGB,EF24-105mm f/4L IS USM,48.893072,2.235428,Hauts-de-Seine,Île-de-France,France,Center-weighted average,clouds
52864457981,8226.0,Canon,Canon EOS 5DS R,0.025,8.0,Manual,100.0,"Off, Did not fire",11.0,Uncalibrated,EF11-24mm f/4L USM,37.290058,13.586264,Province of Agrigento,Sicily,Italy,Multi-segment,clouds
52717259248,8225.0,samsung,SM-A135F,0.0026041666666666665,2.2,Program AE,40.0,No Flash,1.1,Uncalibrated,EF11-24mm f/4L USM,36.728686,-3.693637,Granada,Andalusia,Spain,Center-weighted average,clouds
52873756994,8207.0,FUJIFILM,X-T2,0.0025,5.0,Manual,1600.0,No Flash,20.6,Uncalibrated,XF16-55mmF2.8 R LM WR,39.957547,26.238451,Granada,Canakkale,Turkey,Multi-segment,clouds
52817292471,8201.0,Canon,Canon EOS R5,0.0025,8.0,Manual,640.0,No Flash,29.0,sRGB,RF28-70mm F2 L USM,37.622735,-112.165971,Garfield,Utah,United States,Multi-segment,clouds
52745453562,8193.0,NIKON CORPORATION,NIKON Z 9,0.025,5.6,Manual,64.0,No Flash,24.0,Uncalibrated,14-24mm f/2.8G,33.666659,-111.472413,Maricopa,Arizona,United States,Multi-segment,clouds
52753641741,8174.0,NIKON CORPORATION,NIKON D500,0.005,8.0,Manual,100.0,No Flash,130.0,sRGB,14-24mm f/2.8G,,,,,,Multi-segment,clouds
52769444473,8167.0,Apple,iPhone 7,0.0015151515151515152,1.8,Program AE,20.0,"Off, Did not fire",4.0,Uncalibrated,14-24mm f/2.8G,,,,,,Multi-segment,clouds
52816099755,8145.0,NIKON CORPORATION,NIKON Z 9,0.008,8.0,Manual,800.0,No Flash,24.0,Uncalibrated,24-70mm f/2.8G,33.643350,-111.852053,Maricopa,Arizona,United States,Multi-segment,clouds
52764603295,8047.0,samsung,SM-G975F,0.0005787037037037037,2.2,Program AE,50.0,No Flash,1.8,sRGB,24-70mm f/2.8G,35.333592,25.218386,Nomós Irakleíou,Crete,Greece,Center-weighted average,clouds
52790966840,8001.0,SONY,ILCE-7,0.02,5.6,Manual,100.0,"Off, Did not fire",17.0,sRGB,DT 0mm F0 SAM,46.579154,8.387804,Goms District,Valais,Switzerland,Multi-segment,clouds
52745648501,7957.0,NIKON CORPORATION,NIKON D500,0.0008,18.0,Program AE,1250.0,No Flash,18.0,sRGB,DT 0mm F0 SAM,42.329560,2.346557,Girona,Catalonia,Spain,Multi-segment,clouds
52836945280,7925.0,NIKON CORPORATION,NIKON D500,0.0008,18.0,Program AE,1250.0,No Flash,18.0,sRGB,DT 0mm F0 SAM,,,,,,Multi-segment,clouds
52751967976,7923.0,LEICA CAMERA AG,LEICA Q (Typ 116),0.016666666666666666,4.0,Aperture-priority AE,400.0,"Off, Did not fire",28.0,sRGB,28.0 mm f/1.7,45.433334,12.339856,Venice,Veneto,Italy,Spot,clouds
52746336602,7871.0,NIKON CORPORATION,NIKON Z 6,0.008,16.0,Manual,100.0,No Flash,14.0,sRGB,14.0 mm f/1.8,,,,,,Multi-segment,clouds
52734168059,7861.0,NIKON CORPORATION,NIKON D40,0.005,7.1,Not Defined,200.0,No Flash,18.0,sRGB,14.0 mm f/1.8,51.187050,-0.615159,Surrey,England,UK,Multi-segment,clouds
52709543418,7860.0,SONY,ILCE-7M3,25.0,22.0,Aperture-priority AE,50.0,"Off, Did not fire",34.0,sRGB,FE 24-105mm F4 G OSS,50.859962,1.579730,Pas-de-Calais,Hauts-de-France,France,Multi-segment,clouds
52704173193,7857.0,Canon,Canon EOS 5D Mark IV,0.016666666666666666,8.0,Shutter speed priority AE,200.0,"Off, Did not fire",105.0,Uncalibrated,EF24-105mm f/4L IS USM,,,,,,Multi-segment,clouds
52877000477,7800.0,NIKON CORPORATION,NIKON D90,0.00625,9.0,Not Defined,200.0,"Auto, Did not fire",95.0,Uncalibrated,EF24-105mm f/4L IS USM,,,,,,Multi-segment,clouds
52770795805,7770.0,Canon,Canon EOS 80D,0.003125,5.0,Manual,100.0,"Off, Did not fire",54.0,sRGB,18-200mm F3.5-6.3 DC MACRO OS HSM | Contemporary 014,37.970751,23.739320,Nomarchía Athínas,Attica,Greece,Multi-segment,clouds
52702177173,7720.0,Apple,iPhone 11 Pro,0.00045004500450045,1.8,Program AE,32.0,"Off, Did not fire",4.2,Uncalibrated,iPhone 11 Pro back triple camera 4.25mm f/1.8,,,,,,Multi-segment,clouds
52809149165,7697.0,Apple,iPhone 11 Pro,0.00045004500450045,1.8,Program AE,32.0,"Off, Did not fire",4.2,Uncalibrated,iPhone 11 Pro back triple camera 4.25mm f/1.8,48.980977,5.702719,Meuse,Grand Est,France,Multi-segment,clouds
52895301952,7657.0,NIKON CORPORATION,NIKON Z 6_2,0.6,22.0,Aperture-priority AE,100.0,No Flash,28.0,sRGB,VR 28-300mm f/3.5-5.6G,,,,,,Multi-segment,clouds
52888647392,7646.0,Canon,Canon EOS 6D Mark II,0.002,8.0,Manual,100.0,"Off, Did not fire",16.0,sRGB,EF16-35mm f/2.8L II USM,,,,,,Partial,clouds
52843232325,7635.0,Canon,Canon EOS 6D Mark II,0.025,0.0,Aperture-priority AE,160.0,"Off, Did not fire",0.0,Uncalibrated,EF16-35mm f/2.8L II USM,,,,,,Multi-segment,clouds
52763365367,7631.0,SONY,ILCE-7RM3,0.005,4.5,Aperture-priority AE,250.0,"Off, Did not fire",70.0,Uncalibrated,FE 70-300mm F4.5-5.6 G OSS,47.576002,14.018519,Politischer Bezirk Liezen,Styria,Austria,Multi-segment,clouds
52817780024,7577.0,Canon,Canon EOS R5,1.6,11.0,Manual,100.0,No Flash,14.0,sRGB,RF14-35mm F4 L IS USM,,,,,,Multi-segment,clouds
52761459791,7549.0,NIKON CORPORATION,NIKON Z 7_2,0.0025,11.0,Manual,100.0,No Flash,33.0,sRGB,NIKKOR Z 24-200mm f/4-6.3 VR,45.236413,5.996244,Isère,Auvergne-Rhône-Alpes,France,Multi-segment,clouds
52794991237,7544.0,Panasonic,DC-FZ82,0.001,5.6,Program AE,80.0,"Off, Did not fire",13.7,sRGB,NIKKOR Z 24-200mm f/4-6.3 VR,,,,,,Multi-segment,clouds
52871723979,7497.0,NIKON CORPORATION,NIKON D750,0.04,10.0,Aperture-priority AE,160.0,"Off, Did not fire",35.0,Uncalibrated,TAMRON 17-35mm F/2.8-4 Di OSD A037N,43.440694,-7.272431,Lugo,Galicia,Spain,Multi-segment,clouds
52763949513,7489.0,Canon,Canon PowerShot G7 X Mark II,0.000625,8.0,Aperture-priority AE,125.0,"Off, Did not fire",18.4,sRGB,TAMRON 17-35mm F/2.8-4 Di OSD A037N,,,,,,Spot,clouds
52893137642,7429.0,Apple,iPhone 12,0.01,2.4,Program AE,25.0,"Off, Did not fire",1.6,sRGB,iPhone 12 back dual wide camera 1.55mm f/2.4,48.141297,11.548383,Upper Bavaria,Bavaria,Germany,Multi-segment,clouds
52826483861,7424.0,DJI,FC4170,0.1,4.4,Manual,100.0,No Flash,29.9,sRGB,161.0 mm f/4.4,-33.372881,151.488255,Central Coast,New South Wales,Australia,Average,clouds
52761120816,7418.0,Canon,Canon EOS 30D,0.003125,11.0,Landscape,100.0,"Off, Did not fire",18.0,Uncalibrated,EF-S18-55mm f/3.5-5.6,64.903905,-13.919895,Central Coast,East,Iceland,Multi-segment,clouds
52830444222,7386.0,NIKON CORPORATION,NIKON D750,0.02,11.0,Manual,200.0,"Off, Did not fire",85.0,Uncalibrated,24.0-120.0 mm f/4.0,,,,,,Multi-segment,clouds
52754387319,7362.0,DJI,FC4170,0.005,4.4,Manual,100.0,No Flash,29.9,sRGB,161.0 mm f/4.4,-33.289412,151.569636,Central Coast,New South Wales,Australia,Average,clouds
52764202417,7349.0,NIKON CORPORATION,NIKON D800,0.0015625,7.1,Aperture-priority AE,400.0,"Off, Did not fire",35.0,sRGB,24.0-120.0 mm f/4.0,53.336708,-2.874392,Liverpool,England,UK,Center-weighted average,clouds
52732513110,7345.0,SONY,ILCE-1,0.005,11.0,Manual,100.0,"Off, Did not fire",24.0,Uncalibrated,FE 24-70mm F2.8 GM,34.588492,-112.421894,Yavapai,Arizona,United States,Multi-segment,clouds
52816580201,7336.0,NIKON CORPORATION,NIKON D7000,0.004,9.0,Aperture-priority AE,100.0,"Off, Did not fire",52.0,sRGB,18.0-55.0 mm f/3.5-5.6,50.517656,-4.461328,Cornwall,England,UK,Multi-segment,clouds
52876198949,7331.0,OLYMPUS IMAGING CORP.,E-M1,0.005,2.8,Aperture-priority AE,100.0,"Off, Did not fire",52.0,sRGB,18.0-55.0 mm f/3.5-5.6,48.858335,2.294832,Paris,Île-de-France,France,Multi-segment,clouds
52749508647,7316.0,FUJIFILM,X-Pro2,0.004545454545454545,8.0,Aperture-priority AE,200.0,No Flash,17.4,sRGB,XF10-24mmF4 R OIS,37.236275,-89.262866,Alexander,Illinois,United States,Multi-segment,clouds
52851033208,7307.0,SONY,ILCE-7RM3,0.000625,8.0,Aperture-priority AE,160.0,"Off, Did not fire",192.0,Uncalibrated,FE 70-300mm F4.5-5.6 G OSS,49.251779,20.006377,Powiat tatrzanski,Lesser Poland,Poland,Multi-segment,clouds
52740248362,7296.0,SONY,ILCE-6300,0.008,5.0,Program AE,100.0,"Off, Did not fire",55.0,sRGB,E 55-210mm F4.5-6.3 OSS,-20.434853,-41.795764,Alto Caparaó,Minas Gerais,Brazil,Multi-segment,clouds
52795963735,7276.0,Canon,Canon EOS 750D,0.00625,6.3,Shutter speed priority AE,800.0,"Off, Did not fire",270.0,sRGB,18-270mm,48.708720,-1.845100,Ille-et-Vilaine,Brittany,France,Multi-segment,clouds
52801063442,7244.0,Canon,Canon EOS 5D Mark III,0.008,8.0,Aperture-priority AE,200.0,"Off, Did not fire",50.0,Uncalibrated,EF24-70mm f/2.8L II USM,55.557045,-4.659608,South Ayrshire,Scotland,UK,Center-weighted average,clouds
52843154973,7186.0,Canon,Canon EOS 5D Mark III,0.008,8.0,Aperture-priority AE,200.0,"Off, Did not fire",50.0,Uncalibrated,EF24-70mm f/2.8L II USM,36.618834,22.488670,Laconia,Peloponnese,Greece,Center-weighted average,clouds
52850953589,7101.0,Canon,Canon EOS 70D,0.005,9.0,Landscape,100.0,"Off, Did not fire",55.0,Uncalibrated,EF-S55-250mm f/4-5.6 IS STM,,,,,,Multi-segment,clouds
52704488836,7042.0,Canon,Canon EOS 70D,0.005,9.0,Landscape,100.0,"Off, Did not fire",55.0,sRGB,EF-S55-250mm f/4-5.6 IS STM,,,,,,Multi-segment,clouds
52746077427,7021.0,SONY,ILCE-6300,0.005,10.0,Landscape,100.0,"Off, Did not fire",16.0,sRGB,E PZ 16-50mm F3.5-5.6 OSS,-20.444023,-41.811969,Alto Caparaó,Minas Gerais,Brazil,Multi-segment,clouds
52747954508,6981.0,NIKON CORPORATION,NIKON D750,0.01,8.0,Manual,200.0,"Off, Did not fire",24.0,sRGB,24.0-120.0 mm f/4.0,38.351562,24.115672,Euboea,Central Greece,Greece,Multi-segment,clouds
52873087025,6977.0,SONY,DSC-RX100M3,0.008,5.0,Manual,125.0,"Off, Did not fire",8.9,sRGB,24-70mm F1.8-2.8,51.265191,0.547546,Kent,England,UK,Multi-segment,clouds
52705249973,6961.0,SONY,DSC-RX100M3,0.008,5.0,Manual,125.0,"Off, Did not fire",8.9,Uncalibrated,24-70mm F1.8-2.8,43.994311,1.709414,Tarn,Occitanie,France,Multi-segment,clouds
52788644993,6953.0,SONY,ILCE-7M2,0.00125,5.6,Manual,100.0,"Off, Did not fire",191.0,sRGB,E 28-200mm F2.8-5.6 A071,47.099343,11.827125,Politischer Bezirk Schwaz,Tyrol,Austria,Multi-segment,clouds
52740669375,6948.0,NIKON CORPORATION,NIKON D700,0.0025,8.0,Aperture-priority AE,200.0,No Flash,20.0,Uncalibrated,20.0 mm f/2.8,20.713529,-156.226887,Maui,Hawaii,United States,Multi-segment,clouds
52816664967,6925.0,NIKON CORPORATION,NIKON D300,0.004,6.7,Aperture-priority AE,100.0,No Flash,50.0,Uncalibrated,50.0 mm f/1.8,43.333047,-5.818914,Asturias,Asturias,Spain,Spot,clouds
52800195138,6914.0,NIKON CORPORATION,NIKON D780,0.008,13.0,Aperture-priority AE,450.0,No Flash,14.0,sRGB," 14-24mm f/2.8G",49.021991,12.090249,Upper Palatinate,Bavaria,Germany,Multi-segment,clouds
52763395377,6908.0,SONY,ILCE-7RM2,0.003125,7.1,Aperture-priority AE,100.0,"Off, Did not fire",300.0,sRGB,FE 70-300mm F4.5-5.6 G OSS,45.774391,9.537869,Provincia di Bergamo,Lombardy,Italy,Multi-segment,clouds
52832228903,6905.0,FUJIFILM,X-T3,0.00909090909090909,8.0,Aperture-priority AE,80.0,No Flash,105.5,sRGB,XF70-300mmF4-5.6 R LM OIS WR,,,,,,Spot,clouds
52723361898,6893.0,NIKON CORPORATION,NIKON Z 50,25.0,16.0,Aperture-priority AE,100.0,"Off, Did not fire",26.5,sRGB,NIKKOR Z DX 16-50mm f/3.5-6.3 VR,50.361205,-4.315266,Cornwall,England,UK,Multi-segment,clouds
52732967926,6842.0,NIKON CORPORATION,NIKON Z 50,25.0,16.0,Aperture-priority AE,100.0,"Off, Did not fire",26.5,sRGB,NIKKOR Z DX 16-50mm f/3.5-6.3 VR,,,,,,Multi-segment,clouds
52706015814,6829.0,NIKON CORPORATION,NIKON D850,0.0005,6.3,Aperture-priority AE,100.0,No Flash,10.0,Uncalibrated,10.0-20.0 mm f/4.5-5.6,-12.424152,130.834061,Darwin,Northern Territory,Australia,Other,clouds
52849453013,6815.0,NIKON CORPORATION,NIKON D800,30.0,18.0,Aperture-priority AE,80.0,"Off, Did not fire",32.0,sRGB,16.0-35.0 mm f/4.0,,,,,,Multi-segment,clouds
52793315064,6812.0,SONY,ILCE-7RM4A,0.00625,6.3,Program AE,100.0,"Off, Did not fire",139.0,sRGB,FE 24-240mm F3.5-6.3 OSS,40.996224,29.005622,Darwin,Istanbul,Turkey,Multi-segment,clouds
52737331889,6809.0,Canon,Canon EOS 6D,0.00625,13.0,Manual,100.0,"Off, Did not fire",28.0,sRGB,EF28-80mm f/3.5-5.6,53.140852,-4.379098,Anglesey,Wales,UK,Multi-segment,clouds
52832355761,6792.0,SONY,ILCE-7M3,0.001,9.0,Program AE,100.0,"Off, Did not fire",70.0,sRGB,FE 28-70mm F3.5-5.6 OSS,,,,,,Multi-segment,clouds
52740088937,6775.0,NIKON CORPORATION,NIKON D850,0.003125,4.0,Aperture-priority AE,64.0,No Flash,14.0,Uncalibrated,FE 28-70mm F3.5-5.6 OSS,54.185085,10.168501,,Schleswig-Holstein,Germany,Other,clouds
52805705389,6733.0,NIKON CORPORATION,NIKON D850,0.003125,4.0,Aperture-priority AE,64.0,No Flash,14.0,Uncalibrated,FE 28-70mm F3.5-5.6 OSS,-31.613453,152.290678,Mid-Coast,New South Wales,Australia,Other,clouds
52746461881,6688.0,NIKON CORPORATION,NIKON D750,0.004,5.3,Aperture-priority AE,4000.0,"Off, Did not fire",240.0,Uncalibrated,FE 28-70mm F3.5-5.6 OSS,45.793987,15.916185,Mid-Coast,Zagreb,Croatia,Multi-segment,clouds
52746650516,6590.0,NIKON CORPORATION,NIKON D750,0.004,5.3,Aperture-priority AE,4000.0,"Off, Did not fire",240.0,Uncalibrated,FE 28-70mm F3.5-5.6 OSS,38.000572,23.734210,Nomarchía Athínas,Attica,Greece,Multi-segment,clouds
52812437594,6584.0,NIKON CORPORATION,NIKON D7200,0.016666666666666666,16.0,Aperture-priority AE,100.0,"Off, Did not fire",18.0,Uncalibrated,18.0-300.0 mm f/3.5-6.3,40.462229,-3.691803,Madrid,Madrid,Spain,Multi-segment,clouds
52774082676,6571.0,Panasonic,DMC-G3,0.016666666666666666,16.0,Aperture-priority AE,100.0,"Off, Did not fire",18.0,sRGB,LUMIX G VARIO 14-42/F3.5-5.6,,,,,,Multi-segment,clouds
52706383383,6502.0,NIKON CORPORATION,NIKON D300,0.001,5.6,Aperture-priority AE,200.0,No Flash,17.0,Uncalibrated,AF-S DX Zoom-Nikkor 17-55mm f/2.8G IF-ED,18.982191,72.824678,Mumbai,Maharashtra,India,Multi-segment,clouds
52852260053,6459.0,Hasselblad,L2D-20c,0.06666666666666667,2.8,Program AE,130.0,No Flash,12.3,sRGB,24.0 mm f/2.8,59.254577,10.496530,Tønsberg,Vestfold,Norway,Average,clouds
52868474463,6404.0,Canon,Canon EOS 700D,0.0025,22.0,Aperture-priority AE,640.0,"Off, Did not fire",300.0,sRGB,18-300mm F3.5-6.3 DC MACRO OS HSM | Contemporary 014,52.440909,-0.994327,Northamptonshire,England,UK,Partial,clouds
52843099361,6370.0,NIKON CORPORATION,NIKON Z 6_2,0.00125,5.0,Aperture-priority AE,100.0,No Flash,70.0,sRGB,NIKKOR Z 24-70mm f/4 S,36.028980,-107.900692,San Juan,New Mexico,United States,Multi-segment,clouds
52754415073,6358.0,PENTAX,PENTAX K-30,0.00125,5.0,Aperture-priority AE,100.0,No Flash,70.0,sRGB,NIKKOR Z 24-70mm f/4 S,49.227502,19.863022,Powiat tatrzanski,Lesser Poland,Poland,Multi-segment,clouds
52788093814,6323.0,FUJIFILM,X-T1,0.002,8.0,Aperture-priority AE,200.0,No Flash,35.0,sRGB,XC35mmF2,,,,,,Multi-segment,clouds
52723633110,6318.0,Canon,Canon EOS 6D Mark II,0.002,8.0,Manual,100.0,"Off, Did not fire",17.0,sRGB,EF17-40mm f/4L USM,51.923551,3.984335,Gemeente Westvoorne,South Holland,Holland,Spot,clouds
52752227437,6312.0,Canon,Canon EOS 550D,0.004,4.5,Manual,100.0,"Off, Did not fire",18.0,sRGB,EF-S18-55mm f/3.5-5.6 IS,43.373361,-8.402953,A Coruña,Galicia,Spain,Multi-segment,clouds
52867017550,6291.0,SONY,ILCE-7M4,0.0008,6.3,Manual,100.0,"Off, Did not fire",300.0,sRGB,FE 200-600mm F5.6-6.3 G OSS,-40.022893,175.787639,Manawatu District,Manawatu-Wanganui,New Zealand,Multi-segment,clouds
52747734004,6286.0,SONY,ILCE-6300,0.005,10.0,Program AE,100.0,"Auto, Did not fire",16.0,sRGB,E PZ 16-50mm F3.5-5.6 OSS,-20.444070,-41.811653,Alto Caparaó,Minas Gerais,Brazil,Multi-segment,clouds
52798281852,6278.0,Canon,Canon EOS 5D Mark IV,0.025,6.3,Manual,50.0,"Off, Did not fire",21.0,sRGB,EF17-40mm f/4L USM,,,,,,Center-weighted average,clouds
52739885712,6273.0,samsung,SM-S908B,0.07142857142857142,2.4,Program AE,800.0,No Flash,7.9,sRGB,EF17-40mm f/4L USM,52.333411,-1.309958,Warwickshire,England,UK,Spot,clouds
52811099695,6273.0,Apple,iPhone 13 Pro,0.0002631578947368421,1.5,Program AE,50.0,"Off, Did not fire",5.7,sRGB,iPhone 13 Pro back triple camera 5.7mm f/1.5,8.963472,-79.574578,Warwickshire,Provincia de Panamá,Panama,Multi-segment,clouds
52866041022,6260.0,NIKON CORPORATION,NIKON D7100,0.0025,8.0,Manual,100.0,"Off, Did not fire",18.0,Uncalibrated,iPhone 13 Pro back triple camera 5.7mm f/1.5,,,,,,Multi-segment,clouds
52767739501,6219.0,NIKON CORPORATION,NIKON D7100,0.0025,8.0,Manual,100.0,"Off, Did not fire",18.0,sRGB,iPhone 13 Pro back triple camera 5.7mm f/1.5,55.785194,-4.847148,North Ayrshire,Scotland,UK,Multi-segment,clouds
52739724937,6207.0,SONY,ILCE-6300,0.016666666666666666,4.0,Program AE,100.0,"Off, Did not fire",16.0,sRGB,E PZ 16-50mm F3.5-5.6 OSS,-20.434853,-41.795764,Alto Caparaó,Minas Gerais,Brazil,Multi-segment,clouds
52859739630,6172.0,SONY,ILCE-6300,0.016666666666666666,4.0,Program AE,100.0,"Off, Did not fire",16.0,sRGB,E PZ 16-50mm F3.5-5.6 OSS,36.725923,-118.162683,Inyo,California,United States,Multi-segment,clouds
52889782813,6139.0,NIKON CORPORATION,NIKON D5200,0.008,6.3,Aperture-priority AE,200.0,No Flash,140.0,sRGB,18.0-140.0 mm f/3.5-5.6,46.579750,7.069316,Gruyère District,Fribourg,Switzerland,Center-weighted average,clouds
52737304188,6115.0,Canon,Canon EOS-1D X,13.0,6.3,Manual,50.0,"Off, Did not fire",20.0,sRGB,20mm,59.872134,30.431270,Inyo,Leningrad Oblast,Russia,Spot,clouds
52735326378,6110.0,Canon,Canon EOS-1D X,13.0,6.3,Manual,50.0,"Off, Did not fire",20.0,sRGB,20mm,52.913819,-4.097945,Gwynedd,Wales,UK,Spot,clouds
52716585850,6088.0,Canon,Canon EOS-1D X,30.0,6.3,Manual,200.0,"Off, Did not fire",20.0,sRGB,20mm,59.726271,30.245532,Gwynedd,Leningrad Oblast,Russia,Spot,clouds
52863054082,6085.0,htc,HTC Desire 12+,0.001430615164520744,2.2,Not Defined,100.0,"Off, Did not fire",3.5,sRGB,20mm,,,,,,Average,clouds
52693709668,6082.0,Canon,Canon EOS-1D X,30.0,5.0,Manual,320.0,"Off, Did not fire",20.0,sRGB,20mm,60.118870,31.085289,Gwynedd,Leningrad Oblast,Russia,Spot,clouds
52755262685,6040.0,NIKON,COOLPIX P500,0.00125,3.4,Program AE,160.0,"Off, Did not fire",4.0,sRGB,20mm,57.732568,-4.936380,Highland,Scotland,UK,Multi-segment,clouds
52827090488,6015.0,samsung,SM-A226B,0.00016666666666666666,1.8,Program AE,102.0,"Off, Did not fire",4.7,sRGB,20mm,43.371536,-8.404047,A Coruña,Galicia,Spain,Multi-segment,clouds
52713075214,6010.0,NIKON CORPORATION,NIKON D700,0.00625,9.0,Aperture-priority AE,200.0,No Flash,24.0,sRGB,AF-S Nikkor 24-120mm f/4G ED VR,56.664764,-4.967622,Highland,Scotland,UK,Multi-segment,clouds
52769539616,5977.0,Canon,Canon EOS 6D,0.00125,7.1,Aperture-priority AE,100.0,"Off, Did not fire",28.0,sRGB,EF24-105mm f/4L IS USM,64.244296,-14.971532,Sveitarfélagið Hornafjörður,East,Iceland,Center-weighted average,clouds
52854369078,5975.0,samsung,Galaxy A54 5G,0.00030003000300030005,1.8,Program AE,40.0,No Flash,5.5,sRGB,EF24-105mm f/4L IS USM,43.519661,10.671691,Pisa,Tuscany,Italy,Center-weighted average,clouds
52886298210,5972.0,NIKON CORPORATION,NIKON D750,0.001,5.6,Aperture-priority AE,100.0,"Off, Did not fire",30.0,sRGB,EF24-105mm f/4L IS USM,,,,,,Center-weighted average,clouds
52738139429,5931.0,NIKON CORPORATION,NIKON D850,0.0025,10.0,Aperture-priority AE,400.0,No Flash,70.0,Uncalibrated,24.0-70.0 mm f/2.8,46.693377,7.537605,Thun District,Bern,Switzerland,Multi-segment,clouds
52732392149,5903.0,SONY,DSC-RX10M4,0.004,5.6,Manual,100.0,"Off, Did not fire",8.8,sRGB,24-600mm F2.4-4.0,,,,,,Center-weighted average,clouds
52872477895,5880.0,NIKON CORPORATION,NIKON D3300,0.01,8.0,Manual,400.0,No Flash,55.0,Uncalibrated,24-600mm F2.4-4.0,,,,,,Multi-segment,clouds
52776116208,5866.0,Canon,Canon EOS 6D,0.000625,5.6,Manual,320.0,"Off, Did not fire",28.0,sRGB,EF28-80mm f/3.5-5.6,53.140805,-4.378892,Anglesey,Wales,UK,Multi-segment,clouds
52821031444,5859.0,NIKON CORPORATION,NIKON Z 7_2,0.004,7.1,Manual,100.0,No Flash,105.0,sRGB,NIKKOR Z 24-200mm f/4-6.3 VR,45.256386,5.925850,Isère,Auvergne-Rhône-Alpes,France,Center-weighted average,clouds
52741162002,5839.0,NIKON CORPORATION,NIKON D7200,0.0015625,11.0,Shutter speed priority AE,100.0,"Off, Did not fire",190.0,sRGB,18.0-300.0 mm f/3.5-5.6,42.245535,-88.364547,McHenry,Illinois,United States,Multi-segment,clouds
52743389584,5837.0,Apple,iPhone 11 Pro Max,0.005025125628140704,1.8,Program AE,32.0,"Off, Did not fire",4.2,Uncalibrated,iPhone 11 Pro Max back triple camera 4.25mm f/1.8,-20.434776,-41.795881,Alto Caparaó,Minas Gerais,Brazil,Multi-segment,clouds
52831730556,5818.0,Apple,iPhone 11 Pro Max,0.005025125628140704,1.8,Program AE,32.0,"Off, Did not fire",4.2,sRGB,iPhone 11 Pro Max back triple camera 4.25mm f/1.8,,,,,,Multi-segment,clouds
52819298565,5799.0,Sony,ILCE-7RM3,0.25,8.0,Program AE,125.0,"Off, Did not fire",72.0,Uncalibrated,iPhone 11 Pro Max back triple camera 4.25mm f/1.8,52.526958,21.340049,Powiat wyszkowski,Mazovia,Poland,Multi-segment,clouds
52835255778,5714.0,FUJIFILM,X-T2,0.007142857142857143,8.0,Aperture-priority AE,200.0,"Off, Did not fire",100.0,Uncalibrated,iPhone 11 Pro Max back triple camera 4.25mm f/1.8,,,,,,Center-weighted average,clouds
52822172748,5703.0,SONY,ILCE-7M4,0.0025,10.0,Manual,100.0,"Off, Did not fire",24.6,sRGB,16-28mm F2.8 DG DN | Contemporary 022,50.990192,0.898034,Kent,England,UK,Multi-segment,clouds
52889292828,5667.0,Canon,Canon EOS R7,0.0003125,7.1,Manual,12800.0,No Flash,100.0,sRGB,RF100-500mm F4.5-7.1 L IS USM,53.009817,6.668162,Gemeente Aa en Hunze,Provincie Drenthe,Holland,Multi-segment,clouds
52898969733,5616.0,Canon,Canon EOS 7D Mark II,0.004,7.1,Manual,160.0,"Off, Did not fire",24.0,Adobe RGB,24-105mm F4 DG OS HSM | Art 013,42.951773,-85.873517,Ottawa,Michigan,United States,Multi-segment,clouds
52863138881,5603.0,Canon,Canon PowerShot G3 X,0.005,7.1,Manual,125.0,"Off, Did not fire",9.2,sRGB,24-105mm F4 DG OS HSM | Art 013,,,,,,Multi-segment,clouds
52868541017,5588.0,Canon,Canon EOS 100D,0.008,4.5,Shutter speed priority AE,100.0,"Off, Did not fire",70.0,sRGB,EF70-300mm f/4-5.6L IS USM,-34.463842,150.897474,Wollongong,New South Wales,Australia,Multi-segment,clouds
52888717351,5553.0,Canon,Canon EOS 800D,0.00625,8.0,Manual,100.0,"Off, Did not fire",70.0,sRGB,EF70-300mm f/4-5.6 IS II USM,53.359666,-6.179714,Dublin City,Leinster,Ireland,Multi-segment,clouds
52826823670,5537.0,NIKON CORPORATION,NIKON D7100,0.004,9.0,Aperture-priority AE,100.0,"Off, Did not fire",45.0,Uncalibrated,EF70-300mm f/4-5.6 IS II USM,,,,,,Multi-segment,clouds
52750553710,5534.0,Canon,Canon EOS-1D X,15.0,9.0,Manual,50.0,"Off, Did not fire",40.0,sRGB,EF24-105mm f/4L IS USM,59.872091,30.430841,Dublin City,Leningrad Oblast,Russia,Spot,clouds
52750379543,5479.0,samsung,SM-G935U,0.016666666666666666,1.7,Program AE,100.0,No Flash,4.2,sRGB,EF24-105mm f/4L IS USM,44.979222,-93.255934,Hennepin,Minnesota,United States,Center-weighted average,clouds
52767831189,5399.0,Apple,iPhone 12 Pro,0.0006049606775559589,2.4,Program AE,25.0,"Off, Did not fire",1.5,Uncalibrated,iPhone 12 Pro back triple camera 1.54mm f/2.4,,,,,,Multi-segment,clouds
52721294958,5383.0,"RICOH IMAGING COMPANY, LTD.",PENTAX K-70,0.003125,8.0,Manual,200.0,"Off, Did not fire",50.0,sRGB,iPhone 12 Pro back triple camera 1.54mm f/2.4,,,,,,Spot,clouds
52829250381,5368.0,SONY,DSC-RX10M4,0.002,4.5,Manual,200.0,"Off, Did not fire",8.8,sRGB,iPhone 12 Pro back triple camera 1.54mm f/2.4,42.696390,10.993769,Provincia di Grosseto,Tuscany,Italy,Multi-segment,clouds
52715792629,5367.0,NIKON,COOLPIX P500,0.001,5.0,Program AE,160.0,"Off, Did not fire",4.5,sRGB,iPhone 12 Pro back triple camera 1.54mm f/2.4,57.580175,-4.386377,Highland,Scotland,UK,Multi-segment,clouds
52883078511,5345.0,Canon,Canon EOS 550D,0.0025,5.6,Manual,3200.0,"Off, Did not fire",53.0,sRGB,EF-S18-55mm f/3.5-5.6 IS,43.380052,-8.409261,A Coruña,Galicia,Spain,Multi-segment,clouds
52818413403,5342.0,Canon,Canon EOS 5D Mark IV,0.0015625,6.3,Manual,400.0,"Off, Did not fire",176.0,Uncalibrated,EF100-400mm f/4.5-5.6L IS II USM,-65.766726,-65.137939,A Coruña,Galicia,Spain,Multi-segment,clouds
52722628257,5314.0,FUJIFILM,X-H1,27.0,8.0,Aperture-priority AE,100.0,No Flash,10.0,Uncalibrated,XF10-24mmF4 R OIS,43.553897,7.121919,Alpes-Maritimes,Provence-Alpes-Côte d&#039;Azur,France,Multi-segment,clouds
52845374067,5296.0,FUJIFILM,X-T2,0.0033333333333333335,4.0,Aperture-priority AE,200.0,No Flash,35.0,Uncalibrated,XF35mmF2 R WR,,,,,,Center-weighted average,clouds
52869827540,5264.0,SONY,ILCE-5000,0.008,14.0,Program AE,100.0,"Auto, Did not fire",31.0,sRGB,E PZ 16-50mm F3.5-5.6 OSS,50.756563,7.114205,Cologne District,Northrhine-Westphalia,Germany,Multi-segment,clouds
52895522675,5154.0,SONY,ILCE-5000,0.001,8.0,Program AE,100.0,"Auto, Did not fire",24.0,Uncalibrated,E PZ 16-50mm F3.5-5.6 OSS,41.034774,14.870327,Provincia di Avellino,Campania,Italy,Multi-segment,clouds
52795050411,5129.0,Canon,Canon EOS REBEL T1i,0.00625,7.1,Program AE,400.0,"Off, Did not fire",100.0,Uncalibrated,E PZ 16-50mm F3.5-5.6 OSS,41.818420,-86.343526,Berrien,Michigan,United States,Multi-segment,clouds
52761235543,5026.0,samsung,SM-G930V,0.0006329113924050633,1.7,Program AE,50.0,No Flash,4.2,sRGB,Samsung Galaxy S7 Rear Camera,33.467391,-116.693916,Riverside,California,United States,Multi-segment,clouds
52701779041,4902.0,OLYMPUS IMAGING CORP.,E-M5,0.002,10.0,Program AE,200.0,"Auto, Did not fire",40.0,sRGB,OLYMPUS M.40-150mm F4.0-5.6 R,46.550425,11.665305,South Tyrol,Trentino-Alto Adige,Italy,Multi-segment,clouds
52738397097,4901.0,Apple,iPhone 11 Pro Max,0.0003549875754348598,1.8,Program AE,32.0,"Off, Did not fire",4.2,sRGB,iPhone 11 Pro Max back triple camera 4.25mm f/1.8,-20.453325,-41.801298,Alto Caparaó,Minas Gerais,Brazil,Spot,clouds
52806897650,4887.0,NIKON CORPORATION,NIKON D850,0.01,5.6,Manual,160.0,No Flash,20.0,Uncalibrated,17.0-35.0 mm f/2.8,35.491577,138.605041,Minamitsuru-gun,Yamanashi,Japan,Multi-segment,clouds
52740251179,4859.0,Apple,iPhone 11 Pro Max,0.25,1.8,Program AE,2500.0,"On, Fired",4.2,sRGB,iPhone 11 Pro Max back triple camera 4.25mm f/1.8,-20.434445,-41.796317,Alto Caparaó,Minas Gerais,Brazil,Spot,clouds
52740218908,4857.0,Apple,iPhone 11 Pro Max,0.25,1.8,Program AE,2500.0,"On, Fired",4.2,Uncalibrated,iPhone 11 Pro Max back triple camera 4.25mm f/1.8,57.425355,-6.783256,Highland,Scotland,UK,Spot,clouds
52719908851,4847.0,Apple,iPhone 11 Pro Max,0.25,1.8,Program AE,2500.0,"On, Fired",4.2,sRGB,iPhone 11 Pro Max back triple camera 4.25mm f/1.8,,,,,,Spot,clouds
52759042312,4832.0,NIKON CORPORATION,NIKON D850,0.00625,16.0,Aperture-priority AE,100.0,No Flash,95.0,Uncalibrated,70.0-200.0 mm f/2.8,46.865932,7.470057,Bern-Mittelland District,Bern,Switzerland,Multi-segment,clouds
52793639714,4772.0,FUJIFILM,X-H1,0.017241379310344827,8.0,Aperture-priority AE,100.0,No Flash,10.0,Uncalibrated,XF10-24mmF4 R OIS,43.666774,7.214537,Alpes-Maritimes,Provence-Alpes-Côte d&#039;Azur,France,Multi-segment,clouds
52787568854,4733.0,Canon,Canon EOS R,6.0,14.0,Manual,100.0,No Flash,33.0,Uncalibrated,24-70mm F2.8 DG OS HSM | Art 017,37.803367,-0.800478,Murcia,Murcia,Spain,Multi-segment,clouds
52829603768,4649.0,NIKON CORPORATION,NIKON D850,0.002,5.6,Aperture-priority AE,100.0,No Flash,35.0,Uncalibrated,24.0-70.0 mm f/2.8,34.297338,132.318802,Hatsukaichi-shi,Hiroshima,Japan,Multi-segment,clouds
52826886937,4615.0,NIKON CORPORATION,NIKON D850,0.002,5.6,Aperture-priority AE,100.0,No Flash,35.0,Uncalibrated,24.0-70.0 mm f/2.8,,,,,,Multi-segment,clouds
52797502240,4594.0,SONY,ILCE-6600,0.01,5.6,Manual,200.0,No Flash,25.0,sRGB,E 18-135mm F3.5-5.6 OSS,6.000475,80.752315,Hambantota District,Southern Province,Sri Lanka,Multi-segment,clouds
52703569193,4473.0,SONY,MS Scanner,0.01,5.6,Manual,200.0,No Flash,25.0,Uncalibrated,E 18-135mm F3.5-5.6 OSS,47.281354,12.573101,Politischer Bezirk Zell am See,Salzburg,Austria,Multi-segment,clouds
52772781348,4445.0,Canon,Canon EOS 80D,0.07692307692307693,8.0,Manual,100.0,"Off, Did not fire",80.0,sRGB,EF-S18-200mm f/3.5-5.6 IS,,,,,,Multi-segment,clouds
52796957289,4443.0,Apple,iPhone SE (2nd generation),0.00273224043715847,1.8,Program AE,20.0,"Off, Did not fire",4.0,sRGB,iPhone SE (2nd generation) back camera 3.99mm f/1.8,33.322623,-99.052283,Throckmorton,Texas,United States,Multi-segment,clouds
52715439140,4384.0,SONY,ILCE-7RM2,30.0,8.0,Manual,100.0,"Off, Did not fire",27.0,sRGB,FE 16-35mm F4 ZA OSS,47.429933,9.103336,Wahlkreis Wil,Saint Gall,Switzerland,Spot,clouds
52795314833,4359.0,NIKON CORPORATION,NIKON D850,0.01,13.0,Aperture-priority AE,100.0,No Flash,22.0,Uncalibrated,17.0-35.0 mm f/2.8,47.087005,7.134538,Biel/Bienne District,Bern,Switzerland,Multi-segment,clouds
52807164450,4338.0,Canon,Canon EOS 6D,2.0,22.0,Manual,100.0,"Off, Did not fire",24.0,sRGB,EF24-105mm f/4L IS USM,65.683079,-17.548384,Þingeyjarsveit,Northeast,Iceland,Center-weighted average,clouds
52750874941,4281.0,samsung,SM-A526B,0.0009090909090909091,1.8,Program AE,50.0,No Flash,5.2,sRGB,EF24-105mm f/4L IS USM,47.133136,12.808490,Politischer Bezirk Zell am See,Salzburg,Austria,Center-weighted average,clouds
52703924028,4273.0,NIKON CORPORATION,NIKON Z 6_2,0.07692307692307693,5.6,Aperture-priority AE,400.0,No Flash,300.0,sRGB,VR 28-300mm f/3.5-5.6G,,,,,,Multi-segment,clouds
52747470893,4243.0,NIKON CORPORATION,NIKON D700,0.001,8.0,Aperture-priority AE,200.0,No Flash,20.0,Uncalibrated,20.0 mm f/2.8,40.633911,14.603019,Provincia di Salerno,Campania,Italy,Multi-segment,clouds
52714641288,4225.0,Canon,Canon PowerShot SX10 IS,0.002,4.5,Aperture-priority AE,80.0,No Flash,24.5,sRGB,20.0 mm f/2.8,37.213617,-112.940676,Washington,Utah,United States,Multi-segment,clouds
52699452164,4223.0,NIKON CORPORATION,NIKON D5300,0.02,9.0,Aperture-priority AE,100.0,No Flash,20.0,sRGB,10.0-20.0 mm f/4.5-5.6,40.336407,-75.905465,Berks,Pennsylvania,United States,Spot,clouds
52707742760,4202.0,NIKON CORPORATION,NIKON Z 6_2,0.03333333333333333,11.0,Aperture-priority AE,100.0,No Flash,98.0,sRGB,VR 28-300mm f/3.5-5.6G,,,,,,Multi-segment,clouds
52825682423,4187.0,SONY,ILCE-7M3,0.02,13.0,Aperture-priority AE,100.0,"Off, Did not fire",28.0,sRGB,E 28-200mm F2.8-5.6 A071,,,,,,Multi-segment,clouds
52819604807,4171.0,NIKON CORPORATION,NIKON Z 6_2,0.0005,5.6,Aperture-priority AE,100.0,No Flash,85.0,sRGB,NIKKOR Z 85mm f/1.8 S,48.210252,16.245925,Vienna,Vienna,Austria,Multi-segment,clouds
52705295449,4162.0,SONY,ILCE-6300,0.008,9.0,Landscape,100.0,"Off, Did not fire",16.0,sRGB,E PZ 16-50mm F3.5-5.6 OSS,-41.089928,-71.547356,Departamento de Bariloche,Rio Negro,Argentina,Multi-segment,clouds
52709119677,4086.0,Canon,Canon EOS 6D,0.003125,14.0,Aperture-priority AE,640.0,"Off, Did not fire",200.0,sRGB,EF70-200mm f/4L IS USM,48.619633,-1.511478,Manche,Normandy,France,Center-weighted average,clouds
52751636521,4039.0,Canon,Canon EOS 80D,0.00625,8.0,Program AE,100.0,"Off, Did not fire",35.0,Uncalibrated,EF-S18-135mm f/3.5-5.6 IS USM,46.987381,12.664210,West Flanders,Tyrol,Austria,Multi-segment,clouds
52708523924,4005.0,SONY,ILCE-7RM3,60.0,11.0,Manual,100.0,"Off, Did not fire",25.0,Uncalibrated,ZEISS Loxia 2.4/25,38.691606,-9.421198,Cascais Municipality,Lisbon,Portugal,Multi-segment,clouds
52885550541,3963.0,NIKON CORPORATION,NIKON Z 6,0.005,14.0,Aperture-priority AE,100.0,No Flash,14.0,sRGB,NIKKOR Z 14-30mm f/4 S,47.729161,13.478361,Politischer Bezirk Salzburg-Umgebung,Salzburg,Austria,Multi-segment,clouds
52716982659,3947.0,FUJIFILM,X-E3,0.017857142857142856,11.0,Aperture-priority AE,200.0,No Flash,55.0,Uncalibrated,Fujifilm Fujinon XF18-55mmF2.8-4 R LM OIS,57.425797,-6.781989,Highland,Scotland,UK,Multi-segment,clouds
52734765754,3879.0,NIKON CORPORATION,NIKON D7000,0.008,10.0,Aperture-priority AE,1000.0,No Flash,170.0,Uncalibrated,TAMRON SP 70-300mm F4-5.6 Di VC USD A005N,59.821413,17.650027,Uppsala Municipality,Uppsala,Sweden,Multi-segment,clouds
52737750217,3877.0,Canon,Canon EOS 80D,0.005,8.0,Program AE,100.0,"Off, Did not fire",62.0,Uncalibrated,EF-S18-135mm f/3.5-5.6 IS USM,46.627712,12.040243,South Tyrol,Trentino-Alto Adige,Italy,Multi-segment,clouds
52872980520,3862.0,FUJIFILM,X-T4,0.0029411764705882353,8.0,Aperture-priority AE,160.0,No Flash,62.4,sRGB,XF18-135mmF3.5-5.6R LM OIS WR,,,,,,Multi-segment,clouds
52754791845,3812.0,Canon,Canon EOS-1Ds Mark III,0.005,14.0,Manual,200.0,No Flash,35.0,sRGB,XF18-135mmF3.5-5.6R LM OIS WR,22.360157,103.763680,South Tyrol,T?nh Lai Châu,Vietnam,Multi-segment,clouds
52692991180,3766.0,SONY,ILCE-7RM2,0.0125,4.5,Manual,100.0,"Off, Did not fire",16.0,sRGB,FE 16-35mm F4 ZA OSS,47.429730,9.103063,Wahlkreis Wil,Saint Gall,Switzerland,Spot,clouds
52900286560,3710.0,SONY,ILCE-7RM2,0.003125,7.1,Manual,100.0,"Off, Did not fire",22.0,sRGB,FE 16-35mm F4 ZA OSS,45.353683,10.723983,Provincia di Verona,Veneto,Italy,Spot,clouds
52806674387,3688.0,Canon,Canon EOS 5D Mark III,15.0,13.0,Manual,100.0,"Off, Did not fire",16.0,Uncalibrated,EF16-35mm f/2.8L II USM,38.496047,-0.259101,Alicante,Valencia,Spain,Spot,clouds
52765979884,3674.0,NIKON CORPORATION,NIKON Z 6_2,0.125,13.0,Aperture-priority AE,200.0,"Off, Did not fire",38.0,sRGB,VR 24-120mm f/4G,37.640147,15.183320,Catania,Sicily,Italy,Multi-segment,clouds
52809854581,3626.0,Apple,iPhone 12 Pro,0.005,2.4,Program AE,25.0,"Off, Did not fire",1.5,sRGB,iPhone 12 Pro back triple camera 1.54mm f/2.4,-39.305734,-72.055542,San Diego,Región de la Araucanía,Chile,Multi-segment,clouds
52826946975,3625.0,Canon,Canon EOS 6D,0.0015625,5.0,Aperture-priority AE,100.0,"Off, Did not fire",50.0,sRGB,EF50mm f/1.4 USM,27.743043,-15.580630,Las Palmas,Canary Islands,Spain,Multi-segment,clouds
52721166806,3573.0,Apple,iPhone 12 Pro,0.0005555555555555556,2.0,Aperture-priority AE,25.0,No Flash,6.0,sRGB,iPhone 12 Pro back camera 6mm f/2,-39.284087,-72.221620,Provincia de Cautín,Región de la Araucanía,Chile,Multi-segment,clouds
52784987746,3562.0,Canon,Canon EOS R6,0.00125,10.0,Shutter speed priority AE,100.0,No Flash,24.0,sRGB,RF24-105mm F4 L IS USM,,,,,,Multi-segment,clouds
52899807327,3509.0,SONY,ILCE-7M4,20.0,11.0,Aperture-priority AE,250.0,"Off, Did not fire",14.0,sRGB,14-24mm F2.8 DG DN | Art 019,40.715224,-74.016770,New York,New York,United States,Center-weighted average,clouds
52874433833,3483.0,Canon,Canon EOS 6D,0.016666666666666666,11.0,Aperture-priority AE,320.0,"Off, Did not fire",24.0,sRGB,EF24-105mm f/4L IS USM,64.244296,-14.971532,Sveitarfélagið Hornafjörður,East,Iceland,Center-weighted average,clouds
52820867699,3481.0,samsung,SM-G975F,0.0003094059405940594,2.4,Program AE,50.0,No Flash,4.3,sRGB,EF24-105mm f/4L IS USM,35.334948,25.274902,Nomós Irakleíou,Crete,Greece,Center-weighted average,clouds
52720098729,3457.0,Canon,Canon EOS 6D,0.004,4.0,Manual,100.0,"Off, Did not fire",50.0,Uncalibrated,EF50mm f/1.4 USM,,,,,,Multi-segment,clouds
52820128568,3452.0,Canon,Canon EOS 6D,0.004,4.0,Manual,100.0,"Off, Did not fire",50.0,sRGB,EF50mm f/1.4 USM,,,,,,Multi-segment,clouds
52800807217,3350.0,OLYMPUS CORPORATION,E-M5MarkIII,0.008,5.0,Aperture-priority AE,800.0,"Off, Did not fire",12.0,sRGB,OLYMPUS M.12-40mm F2.8,,,,,,Multi-segment,clouds
52693007006,3330.0,NIKON CORPORATION,NIKON D850,0.008,5.0,Manual,1000.0,No Flash,70.0,sRGB,70.0-200.0 mm f/2.8,41.996370,-82.835848,Nomós Irakleíou,Ontario,Canada,Center-weighted average,clouds
52753038058,3300.0,samsung,SM-A525F,0.005952380952380952,1.8,Program AE,40.0,No Flash,5.2,sRGB,70.0-200.0 mm f/2.8,42.137802,19.051417,Nomós Irakleíou,Bar,Montenegro,Center-weighted average,clouds
52786671889,3300.0,Apple,iPhone 12 Pro,0.0017094017094017094,2.4,Program AE,25.0,"Off, Did not fire",1.5,Uncalibrated,iPhone 12 Pro back triple camera 1.54mm f/2.4,51.506013,-0.173498,Greater London,England,UK,Multi-segment,clouds
52789638047,3276.0,SONY,ILCE-7RM2,0.002,8.0,Manual,100.0,"Off, Did not fire",31.0,sRGB,FE 16-35mm F4 ZA OSS,47.155027,9.313316,Wahlkreis Werdenberg,Saint Gall,Switzerland,Spot,clouds
52748747721,3273.0,Canon,Canon EOS 5D Mark IV,0.02,8.0,Aperture-priority AE,200.0,"Off, Did not fire",24.0,sRGB,EF24-105mm f/4L IS USM,51.676005,4.106194,Schouwen-Duiveland,Provincie Zeeland,Holland,Multi-segment,clouds
52698287582,3261.0,FUJIFILM,X-S10,0.00125,7.1,Manual,1250.0,No Flash,23.0,Uncalibrated,Fujifilm Fujinon XF23mmF2 R WR,,,,,,Multi-segment,clouds
52832676156,3201.0,HUAWEI,JNY-LX1,8.695652173913044e-05,1.8,Program AE,50.0,No Flash,4.8,sRGB,Fujifilm Fujinon XF23mmF2 R WR,51.454605,20.457619,Powiat opoczynski,Lódz Voivodeship,Poland,Multi-segment,clouds
52774757835,3179.0,Canon,Canon EOS 5D Mark II,0.0008,11.0,Aperture-priority AE,200.0,"Off, Did not fire",105.0,sRGB,EF24-105mm f/4L IS USM,,,,,,Multi-segment,clouds
52785095839,3145.0,samsung,SM-G991B,0.0018726591760299626,1.8,Program AE,50.0,No Flash,5.4,sRGB,EF24-105mm f/4L IS USM,52.371927,4.895805,Gemeente Amsterdam,North Holland,Holland,Center-weighted average,clouds
52804452241,3134.0,SONY,ILCE-6600,0.016666666666666666,5.6,Manual,200.0,No Flash,33.0,sRGB,E 18-135mm F3.5-5.6 OSS,,,,,,Multi-segment,clouds
52708662533,3131.0,NIKON CORPORATION,NIKON D5500,0.004,8.0,Program AE,100.0,"Off, Did not fire",24.0,Uncalibrated,E 18-135mm F3.5-5.6 OSS,,,,,,Multi-segment,clouds
52753355021,3119.0,SONY,ILCE-7RM2,0.005,8.0,Manual,100.0,"Off, Did not fire",35.0,sRGB,FE 16-35mm F4 ZA OSS,47.429433,9.102797,Wahlkreis Wil,Saint Gall,Switzerland,Spot,clouds
52748109685,3088.0,NIKON CORPORATION,NIKON D810,0.8,16.0,Manual,64.0,"Off, Did not fire",16.0,Uncalibrated,16.0-35.0 mm f/4.0,43.574218,-6.044820,Asturias,Asturias,Spain,Multi-segment,clouds
52822512507,3082.0,SONY,ILCE-1,0.001,8.0,Manual,3200.0,"Off, Did not fire",24.0,Uncalibrated,FE 24-70mm F2.8 GM,51.501369,-0.123424,Greater London,England,UK,Multi-segment,clouds
52699766683,3077.0,FUJIFILM,GFX 50R,0.00025,2.8,Aperture-priority AE,320.0,No Flash,110.0,sRGB,GF110mmF2 R LM WR,,,,,,Multi-segment,clouds
52736168418,3058.0,SONY,DSC-RX100M7,0.005,5.6,Program AE,100.0,"Auto, Did not fire",9.0,Uncalibrated,GF110mmF2 R LM WR,,,,,,Multi-segment,clouds
52737998434,3042.0,Canon,Canon EOS 400D DIGITAL,0.00625,11.0,Shutter speed priority AE,200.0,"Off, Did not fire",17.0,sRGB,EF-S17-85mm f/4-5.6 IS USM,,,,,,Multi-segment,clouds
52713526178,3029.0,NIKON CORPORATION,NIKON Z 6,0.005,22.0,Aperture-priority AE,250.0,No Flash,26.0,sRGB,NIKKOR Z 14-30mm f/4 S,,,,,,Multi-segment,clouds
52787995373,3008.0,Canon,Canon EOS-1Ds Mark III,0.008,8.0,Manual,200.0,No Flash,63.0,sRGB,EF24-70mm f/2.8L II USM,22.615536,105.863034,Greater London,T?nh Cao B?ng,Vietnam,Multi-segment,clouds
52721377496,2970.0,Canon,Canon EOS 1200D,0.008,11.0,Landscape,100.0,"Off, Did not fire",18.0,sRGB,18-200mm,39.622722,19.929360,Nomós Kerkýras,Ionian Islands,Greece,Multi-segment,clouds
52876776536,2961.0,NIKON CORPORATION,NIKON D850,0.005,8.0,Aperture-priority AE,250.0,No Flash,40.0,Uncalibrated,24.0-70.0 mm f/2.8,31.620666,74.875952,Amritsar,Punjab,India,Multi-segment,clouds
52723353609,2941.0,NIKON CORPORATION,NIKON D610,0.008,8.0,Manual,100.0,"Off, Did not fire",120.0,Uncalibrated,24.0-120.0 mm f/4.0,,,,,,Multi-segment,clouds
52708356095,2911.0,Canon,Canon EOS R5,10.0,11.0,Manual,100.0,No Flash,70.0,sRGB,EF24-70mm f/4L IS USM,57.880149,-6.936944,Western Isles,Scotland,UK,Multi-segment,clouds
52807891094,2906.0,NIKON CORPORATION,NIKON D850,0.005,9.0,Manual,64.0,No Flash,44.0,sRGB,24.0-120.0 mm f/4.0,42.244960,-83.101136,Western Isles,Ontario,Canada,Center-weighted average,clouds
52799863168,2894.0,OLYMPUS CORPORATION,E-M10MarkII,0.3,8.0,Manual,100.0,"On, Did not fire",12.0,sRGB,OLYMPUS M.12-40mm F2.8,51.322407,21.951370,Powiat pulawski,Lublin,Poland,Center-weighted average,clouds
52818734459,2885.0,SONY,DSC-RX100M7,0.004,4.0,Program AE,100.0,"Auto, Did not fire",32.1,Uncalibrated,OLYMPUS M.12-40mm F2.8,,,,,,Multi-segment,clouds
52811839639,2869.0,Canon,Canon EOS 6D,0.003125,5.0,Manual,200.0,"Off, Did not fire",79.0,Uncalibrated,EF70-300mm f/4-5.6 IS II USM,46.538657,11.627204,South Tyrol,Trentino-Alto Adige,Italy,Multi-segment,clouds
52847141863,2868.0,NIKON CORPORATION,NIKON D5300,1.0,22.0,Manual,100.0,No Flash,18.0,sRGB,10.0-20.0 mm f/4.5-5.6,51.503805,-0.073387,Greater London,England,UK,Spot,clouds
52755438047,2864.0,Canon,Canon EOS R6,0.0025,8.0,Manual,100.0,No Flash,24.0,sRGB,EF11-24mm f/4L USM,-30.302998,153.146708,Coffs Harbour,New South Wales,Australia,Multi-segment,clouds
52717496013,2859.0,Canon,Canon EOS 5D Mark III,0.002,16.0,Manual,160.0,"Off, Did not fire",104.0,Uncalibrated,EF70-300mm f/4-5.6L IS USM,,,,,,Multi-segment,clouds
52818973665,2840.0,Canon,Canon EOS 5D Mark III,0.002,16.0,Manual,160.0,"Off, Did not fire",104.0,sRGB,EF70-300mm f/4-5.6L IS USM,,,,,,Multi-segment,clouds
52756956469,2806.0,Canon,Canon EOS-1Ds Mark III,0.00625,5.6,Aperture-priority AE,200.0,No Flash,24.0,sRGB,EF70-300mm f/4-5.6L IS USM,22.360157,103.763680,Limburg Province,T?nh Lai Châu,Vietnam,Multi-segment,clouds
52708091191,2804.0,samsung,SM-G998U,0.008333333333333333,1.8,Program AE,250.0,No Flash,6.7,Uncalibrated,Samsung Galaxy S21 Ultra Rear Main Camera,38.305119,-84.694931,Scott,Kentucky,United States,Center-weighted average,clouds
52812971449,2791.0,samsung,SM-G998U,0.008333333333333333,1.8,Program AE,250.0,No Flash,6.7,Uncalibrated,Samsung Galaxy S21 Ultra Rear Main Camera,59.859359,17.634437,Uppsala Municipality,Uppsala,Sweden,Center-weighted average,clouds
52768032622,2790.0,SONY,SLT-A99V,63.0,8.0,Manual,100.0,"Off, Did not fire",40.0,sRGB,----,43.565163,-6.149737,Asturias,Asturias,Spain,Multi-segment,clouds
52859116631,2779.0,NIKON CORPORATION,NIKON D750,0.025,11.0,Manual,200.0,"Off, Did not fire",15.0,sRGB,14.0-24.0 mm f/2.8,46.519665,12.017143,Province of Belluno,Veneto,Italy,Multi-segment,clouds
52744487704,2774.0,Canon,Canon EOS 400D DIGITAL,0.005,11.0,Shutter speed priority AE,100.0,"Off, Did not fire",20.0,sRGB,14.0-24.0 mm f/2.8,,,,,,Partial,clouds
52893772189,2751.0,NIKON CORPORATION,NIKON Z 6,0.01,14.0,Aperture-priority AE,100.0,No Flash,15.0,sRGB,NIKKOR Z 14-30mm f/4 S,47.729161,13.478361,Politischer Bezirk Salzburg-Umgebung,Salzburg,Austria,Multi-segment,clouds
52692959473,2739.0,Canon,Canon EOS-1Ds Mark III,0.04,8.0,Manual,400.0,No Flash,180.0,sRGB,EF180mm f/3.5L Macro USM,22.319311,103.858029,Politischer Bezirk Salzburg-Umgebung,T?nh Lào Cai,Vietnam,Multi-segment,clouds
52734503013,2736.0,NIKON CORPORATION,NIKON D610,0.005,10.0,Manual,100.0,"Off, Did not fire",24.0,Uncalibrated,24.0-120.0 mm f/4.0,,,,,,Multi-segment,clouds
52716652480,2718.0,Canon,Canon EOS 5DS R,0.005,11.0,Manual,200.0,"Off, Did not fire",24.0,sRGB,EF24-70mm f/2.8L II USM,,,,,,Multi-segment,clouds
52805479605,2708.0,NIKON CORPORATION,NIKON D7000,0.000125,9.0,Aperture-priority AE,1000.0,"Off, Did not fire",70.0,Uncalibrated,TAMRON SP 70-300mm F4-5.6 Di VC USD A005N,59.660981,17.393191,Håbo Municipality,Uppsala,Sweden,Multi-segment,clouds
52775813763,2704.0,OLYMPUS CORPORATION,E-M10MarkIV,0.0004,4.0,Aperture-priority AE,200.0,Unknown (0x48),45.0,sRGB,OLYMPUS M.45mm F1.8,47.649452,9.481190,Tübingen,Baden-Württemberg,Germany,Multi-segment,clouds
52806628505,2697.0,OLYMPUS CORPORATION,E-M10MarkIV,0.0004,4.0,Aperture-priority AE,200.0,Unknown (0x48),45.0,sRGB,OLYMPUS M.45mm F1.8,48.233649,16.402587,Vienna,Vienna,Austria,Multi-segment,clouds
52701067828,2682.0,Canon,Canon EOS 6D Mark II,0.00125,6.3,Aperture-priority AE,320.0,"Off, Did not fire",45.0,Uncalibrated,EF24-105mm f/4L IS USM,49.274047,-123.155228,Greater Vancouver Regional District,British Columbia,Canada,Multi-segment,clouds
52750378386,2678.0,samsung,SM-A525F,0.0001893222264293828,1.8,Program AE,40.0,No Flash,5.2,sRGB,EF24-105mm f/4L IS USM,42.205751,18.936691,Greater Vancouver Regional District,Budva,Montenegro,Center-weighted average,clouds
52792558552,2664.0,Canon,Canon EOS 6D,0.000625,7.1,Aperture-priority AE,200.0,"Off, Did not fire",150.0,sRGB,EF70-200mm f/4L IS USM,65.675091,-20.665369,Greater Vancouver Regional District,Northwest,Iceland,Center-weighted average,clouds
52825905377,2653.0,Canon,Canon EOS 6D,0.016666666666666666,13.0,Aperture-priority AE,250.0,"Off, Did not fire",60.0,sRGB,EF24-105mm f/4L IS USM,48.921667,2.039744,Yvelines,Île-de-France,France,Center-weighted average,clouds
52757002654,2649.0,NIKON CORPORATION,NIKON D80,0.005,10.0,Not Defined,320.0,"Off, Did not fire",70.0,Uncalibrated,70.0-300.0 mm f/4.5-5.6,59.782288,17.631831,Uppsala Municipality,Uppsala,Sweden,Multi-segment,clouds
